{"type":"FeatureCollection","bbox":[1.2866332761496786,52.623771140827195,1.303600984415389,52.63648426052858],"features":[{"type":"Feature","geometry":{"type":"Point","coordinates":[1.2896367273216844,52.628202855036704]},"properties":{"LOCATION":"Opposite Sir Issac Newton Free School / The Old Skating Rink","ADDRESS":"Bethel Street","SPACES":"Two spaces","INFORMATIO":"","URL_LINK":""}},{"type":"Feature","geometry":{"type":"Point","coordinates":[1.3030949655135478,52.62977219969967]},"properties":{"LOCATION":"Near junction with St Faiths Lane","ADDRESS":"Cathedral Street","SPACES":"Three spaces","INFORMATIO":"","URL_LINK":""}},{"type":"Feature","geometry":{"type":"Point","coordinates":[1.297920973139454,52.629653565738614]},"properties":{"LOCATION":"Opposite The Royal Business Centre at junction with Redwell Street","ADDRESS":"Bank Street","SPACES":"Two spaces","INFORMATIO":"","URL_LINK":""}},{"type":"Feature","geometry":{"type":"Point","coordinates":[1.296183539397964,52.62960097267078]},"properties":{"LOCATION":"Near London Street junction (Accessed via Bedford Street / London Street)","ADDRESS":"Opie Street","SPACES":"Two spaces","INFORMATIO":"","URL_LINK":""}},{"type":"Feature","geometry":{"type":"Point","coordinates":[1.2991948714850368,52.62898045989803]},"properties":{"LOCATION":"Near to Handelsbanken and junction with Greyfriars Road (Accessed via Prince of Wales Road)","ADDRESS":"King Street","SPACES":"One space","INFORMATIO":"","URL_LINK":""}},{"type":"Feature","geometry":{"type":"Point","coordinates":[1.2908298286462694,52.62730149893252]},"properties":{"LOCATION":"Adjacent to The Forum opposite the Assembly House","ADDRESS":"Theatre Street","SPACES":"Eleven spaces","INFORMATIO":"Total eleven spaces over three parking bays","URL_LINK":""}},{"type":"Feature","geometry":{"type":"Point","coordinates":[1.2945308647012035,52.63232344543405]},"properties":{"LOCATION":"Near the Playhouse Theatre (Accessed via Colegate)","ADDRESS":"St Georges Street","SPACES":"Two spaces","INFORMATIO":"Located on the pedestrian priority area of Colegate","URL_LINK":""}},{"type":"Feature","geometry":{"type":"Point","coordinates":[1.2932562470957305,52.6286972319191]},"properties":{"LOCATION":"Adjacent to The Market opposite Lloyds Bank (Accessed via Gaol Hill)","ADDRESS":"Gentleman's Walk","SPACES":"Five spaces","INFORMATIO":"Maximum stay 4 hours. Located on the pedestrian priority area of Gentleman's Walk","URL_LINK":""}},{"type":"Feature","geometry":{"type":"Point","coordinates":[1.2983837200049055,52.62626149258357]},"properties":{"LOCATION":"Outside NHS Walk-in Centre / GP Surgery at Rouen House (Opposite Archant Newspaper Office)","ADDRESS":"Rouen Road","SPACES":"Five spaces","INFORMATIO":"Dropped kerb for entire length of parking bay for ease of use","URL_LINK":""}},{"type":"Feature","geometry":{"type":"Point","coordinates":[1.2872035639099408,52.63137512373879]},"properties":{"LOCATION":"Near Ten Bell Lane opposite entrance to Woolgate Court","ADDRESS":"St Benedicts Street","SPACES":"Two spaces","INFORMATIO":"","URL_LINK":""}},{"type":"Feature","geometry":{"type":"Point","coordinates":[1.293280425796944,52.62667176554614]},"properties":{"LOCATION":"Outside Debenhams near Rampant Horse Street junction (Accessed via Chapel Field North / Theatre Street / Rampant Horse Street)","ADDRESS":"Brigg Street","SPACES":"Five spaces","INFORMATIO":"Maximum stay 4 hours. Only blue badge holders may enter Rampant Horse Street but may not pass the bus gate at its junction with Red Lion Street / St Stephens Plain","URL_LINK":""}},{"type":"Feature","geometry":{"type":"Point","coordinates":[1.2896045012125423,52.63445657289437]},"properties":{"LOCATION":"Outside Oak Street Medical Practice and Lloyds Pharmacy (Accessed via Oak Street)","ADDRESS":"Mandela Close","SPACES":"Two spaces","INFORMATIO":"","URL_LINK":""}},{"type":"Feature","geometry":{"type":"Point","coordinates":[1.2959678458535124,52.63070013204752]},"properties":{"LOCATION":"Near The Halls (Accessed via St Andrews Street)","ADDRESS":"Princes Street","SPACES":"Two spaces","INFORMATIO":"","URL_LINK":""}},{"type":"Feature","geometry":{"type":"Point","coordinates":[1.2972459737220396,52.63666145023452]},"properties":{"LOCATION":"Outside Blueberry Public House and adjacent to The Gurney Surgery (Accessed via Magdalen Street junction)","ADDRESS":"Cowgate","SPACES":"Two spaces","INFORMATIO":"","URL_LINK":""}},{"type":"Feature","geometry":{"type":"Point","coordinates":[1.2937555076255762,52.62904566919716]},"properties":{"LOCATION":"Opposite Jarrold's Store (Accessed via Gaol Hill)","ADDRESS":"London Street","SPACES":"Three spaces","INFORMATIO":"Maximum stay 4 hours. Located on the pedestrian priority area of London Street. Total three spaces over two parking bays","URL_LINK":""}},{"type":"Feature","geometry":{"type":"Point","coordinates":[1.2993714420760183,52.63054797008865]},"properties":{"LOCATION":"Outside Cambridge House near to the Ethelbert Gate, The Close","ADDRESS":"Tombland","SPACES":"One space","INFORMATIO":"","URL_LINK":""}},{"type":"Feature","geometry":{"type":"Point","coordinates":[1.295284037324479,52.62475503569317]},"properties":{"LOCATION":"Opposite John Lewis Stores","ADDRESS":"All Saints Green","SPACES":"Four spaces","INFORMATIO":"","URL_LINK":""}},{"type":"Feature","geometry":{"type":"Point","coordinates":[1.2953823677352543,52.62352786685929]},"properties":{"LOCATION":"Outside Norfolk Towers","ADDRESS":"Surrey Street","SPACES":"Four spaces","INFORMATIO":"","URL_LINK":""}},{"type":"Feature","geometry":{"type":"Point","coordinates":[1.2970644376280074,52.62990549775735]},"properties":{"LOCATION":"Adjacent to OPEN at junction with London Street","ADDRESS":"Bank Plain","SPACES":"Four spaces","INFORMATIO":"","URL_LINK":""}},{"type":"Feature","geometry":{"type":"Point","coordinates":[1.2933919986983582,52.628884584874434]},"properties":{"LOCATION":"Outside The Halifax (Accessed via Gaol Hill)","ADDRESS":"Gentleman's Walk","SPACES":"Two spaces","INFORMATIO":"Maximum stay 4 hours","URL_LINK":""}},{"type":"Feature","geometry":{"type":"Point","coordinates":[1.2914808118251428,52.628134689322465]},"properties":{"LOCATION":"Outside entrance to City Hall Customer Centre entrance","ADDRESS":"Bethel Street","SPACES":"Two spaces","INFORMATIO":"","URL_LINK":""}}]}