{
 "type": "FeatureCollection",
 "features": [
  {
   "type": "Feature",
   "id": "relation/943800",
   "properties": {
    "leisure": "golf_course",
    "name": "Eaton Park Pitch & Putt Golf Course",
    "sport": "golf",
    "type": "multipolygon",
    "id": "relation/943800"
   },
   "geometry": {
    "type": "Point",
    "coordinates": [
     1.2503739325581398,
     52.61898921395348
    ]
   }
  },
  {
   "type": "Feature",
   "id": "relation/943801",
   "properties": {
    "leisure": "park",
    "type": "multipolygon",
    "id": "relation/943801"
   },
   "geometry": {
    "type": "Point",
    "coordinates": [
     1.2558403363636363,
     52.62164612727272
    ]
   }
  },
  {
   "type": "Feature",
   "id": "relation/943802",
   "properties": {
    "fee": "no",
    "leisure": "park",
    "name": "Eaton Park",
    "opening_hours": "24/7",
    "type": "multipolygon",
    "id": "relation/943802"
   },
   "geometry": {
    "type": "Point",
    "coordinates": [
     1.2541721792452827,
     52.61957158867923
    ]
   }
  },
  {
   "type": "Feature",
   "id": "relation/943803",
   "properties": {
    "leisure": "playground",
    "name": "Children's Playground",
    "type": "multipolygon",
    "id": "relation/943803"
   },
   "geometry": {
    "type": "Point",
    "coordinates": [
     1.25813796,
     52.6218251
    ]
   }
  },
  {
   "type": "Feature",
   "id": "relation/1185275",
   "properties": {
    "building": "stadium",
    "capacity": "27220",
    "leisure": "stadium",
    "name": "Carrow Road",
    "operator": "Norwich City Football Club",
    "sport": "soccer",
    "type": "multipolygon",
    "wikidata": "Q123017",
    "id": "relation/1185275"
   },
   "geometry": {
    "type": "Point",
    "coordinates": [
     1.3095932551020413,
     52.62192016122447
    ]
   }
  },
  {
   "type": "Feature",
   "id": "relation/1531446",
   "properties": {
    "leisure": "marina",
    "type": "multipolygon",
    "id": "relation/1531446"
   },
   "geometry": {
    "type": "Point",
    "coordinates": [
     1.3332520875000002,
     52.62570645000001
    ]
   }
  },
  {
   "type": "Feature",
   "id": "relation/1601755",
   "properties": {
    "leisure": "park",
    "name": "Bowthorpe Park",
    "source": "OS_OpenData_StreetView",
    "type": "multipolygon",
    "id": "relation/1601755"
   },
   "geometry": {
    "type": "Point",
    "coordinates": [
     1.2232502213114755,
     52.642578826229524
    ]
   }
  },
  {
   "type": "Feature",
   "id": "relation/1601759",
   "properties": {
    "leisure": "pitch",
    "sport": "tennis",
    "type": "multipolygon",
    "id": "relation/1601759"
   },
   "geometry": {
    "type": "Point",
    "coordinates": [
     1.2234011857142857,
     52.64304140000001
    ]
   }
  },
  {
   "type": "Feature",
   "id": "relation/1607426",
   "properties": {
    "leisure": "park",
    "type": "multipolygon",
    "id": "relation/1607426"
   },
   "geometry": {
    "type": "Point",
    "coordinates": [
     1.2132648444444445,
     52.64009265555557
    ]
   }
  },
  {
   "type": "Feature",
   "id": "relation/1608357",
   "properties": {
    "addr:city": "Norwich",
    "addr:country": "GB",
    "addr:postcode": "NR4 6SF",
    "addr:street": "Newmarket Road",
    "description": "18 hole Par 70",
    "email": "peter@eatongc.co.uk",
    "leisure": "golf_course",
    "name": "Eaton Golf Club (Norwich)",
    "phone": "+44 1603 451686;+44 1603 251399",
    "sport": "golf",
    "type": "multipolygon",
    "website": "http://www.eatongc.co.uk/",
    "id": "relation/1608357"
   },
   "geometry": {
    "type": "Point",
    "coordinates": [
     1.2670984506849317,
     52.604998032876715
    ]
   }
  },
  {
   "type": "Feature",
   "id": "relation/1610682",
   "properties": {
    "leisure": "park",
    "name": "Sloughbottom Park",
    "type": "multipolygon",
    "id": "relation/1610682"
   },
   "geometry": {
    "type": "Point",
    "coordinates": [
     1.2667274737588652,
     52.64449517234044
    ]
   }
  },
  {
   "type": "Feature",
   "id": "relation/1620914",
   "properties": {
    "leisure": "playground",
    "type": "multipolygon",
    "id": "relation/1620914"
   },
   "geometry": {
    "type": "Point",
    "coordinates": [
     1.2305983,
     52.633215099999994
    ]
   }
  },
  {
   "type": "Feature",
   "id": "relation/1634341",
   "properties": {
    "leisure": "park",
    "name": "Bowthorpe School Site Community Park",
    "operator": "N.E.L.M. Development Trust Limited",
    "type": "multipolygon",
    "id": "relation/1634341"
   },
   "geometry": {
    "type": "Point",
    "coordinates": [
     1.2558579790697675,
     52.635310609302316
    ]
   }
  },
  {
   "type": "Feature",
   "id": "relation/1634345",
   "properties": {
    "leisure": "track",
    "surface": "asphalt",
    "type": "multipolygon",
    "id": "relation/1634345"
   },
   "geometry": {
    "type": "Point",
    "coordinates": [
     1.2574914108108106,
     52.63583664594594
    ]
   }
  },
  {
   "type": "Feature",
   "id": "relation/1635192",
   "properties": {
    "leisure": "marina",
    "type": "multipolygon",
    "id": "relation/1635192"
   },
   "geometry": {
    "type": "Point",
    "coordinates": [
     1.3450808937499998,
     52.62448195625
    ]
   }
  },
  {
   "type": "Feature",
   "id": "relation/1635193",
   "properties": {
    "leisure": "marina",
    "type": "multipolygon",
    "id": "relation/1635193"
   },
   "geometry": {
    "type": "Point",
    "coordinates": [
     1.3475878444444447,
     52.62409044444444
    ]
   }
  },
  {
   "type": "Feature",
   "id": "relation/1635197",
   "properties": {
    "leisure": "marina",
    "type": "multipolygon",
    "id": "relation/1635197"
   },
   "geometry": {
    "type": "Point",
    "coordinates": [
     1.370123004347826,
     52.62467546086956
    ]
   }
  },
  {
   "type": "Feature",
   "id": "relation/1635198",
   "properties": {
    "leisure": "marina",
    "type": "multipolygon",
    "id": "relation/1635198"
   },
   "geometry": {
    "type": "Point",
    "coordinates": [
     1.3671141900000001,
     52.625059779999994
    ]
   }
  },
  {
   "type": "Feature",
   "id": "relation/1640493",
   "properties": {
    "leisure": "park",
    "name": "Fountain Park",
    "type": "multipolygon",
    "id": "relation/1640493"
   },
   "geometry": {
    "type": "Point",
    "coordinates": [
     1.3144842777777779,
     52.64087791111111
    ]
   }
  },
  {
   "type": "Feature",
   "id": "relation/1707272",
   "properties": {
    "leisure": "track",
    "sport": "athletics",
    "type": "multipolygon",
    "id": "relation/1707272"
   },
   "geometry": {
    "type": "Point",
    "coordinates": [
     1.242112803030303,
     52.62481929696968
    ]
   }
  },
  {
   "type": "Feature",
   "id": "relation/1733338",
   "properties": {
    "leisure": "pitch",
    "sport": "soccer",
    "type": "multipolygon",
    "id": "relation/1733338"
   },
   "geometry": {
    "type": "Point",
    "coordinates": [
     1.2873715833333335,
     52.624185049999994
    ]
   }
  },
  {
   "type": "Feature",
   "id": "relation/1738302",
   "properties": {
    "leisure": "playground",
    "type": "multipolygon",
    "id": "relation/1738302"
   },
   "geometry": {
    "type": "Point",
    "coordinates": [
     1.2231522833333335,
     52.64596018333333
    ]
   }
  },
  {
   "type": "Feature",
   "id": "relation/1739415",
   "properties": {
    "leisure": "sports_centre",
    "name": "Goals Soccer Centres",
    "source": "survey",
    "sport": "soccer",
    "type": "multipolygon",
    "id": "relation/1739415"
   },
   "geometry": {
    "type": "Point",
    "coordinates": [
     1.2899449476190477,
     52.61115776666667
    ]
   }
  },
  {
   "type": "Feature",
   "id": "relation/1741555",
   "properties": {
    "leisure": "nature_reserve",
    "name": "Danby Wood",
    "natural": "wood",
    "note": "Local nature reserve",
    "type": "multipolygon",
    "id": "relation/1741555"
   },
   "geometry": {
    "type": "Point",
    "coordinates": [
     1.2765144227272722,
     52.60381545151515
    ]
   }
  },
  {
   "type": "Feature",
   "id": "relation/1745251",
   "properties": {
    "leisure": "park",
    "name": "Jubilee Park",
    "type": "multipolygon",
    "id": "relation/1745251"
   },
   "geometry": {
    "type": "Point",
    "coordinates": [
     1.2982111944444443,
     52.61408503888889
    ]
   }
  },
  {
   "type": "Feature",
   "id": "relation/1748681",
   "properties": {
    "leisure": "playground",
    "type": "multipolygon",
    "id": "relation/1748681"
   },
   "geometry": {
    "type": "Point",
    "coordinates": [
     1.292570382352941,
     52.60555497058824
    ]
   }
  },
  {
   "type": "Feature",
   "id": "relation/1764963",
   "properties": {
    "leisure": "park",
    "name": "Harford Park",
    "type": "multipolygon",
    "id": "relation/1764963"
   },
   "geometry": {
    "type": "Point",
    "coordinates": [
     1.2809079518518518,
     52.60627708518519
    ]
   }
  },
  {
   "type": "Feature",
   "id": "relation/1767393",
   "properties": {
    "leisure": "golf_course",
    "name": "Sprowston Manor Golf Club",
    "type": "multipolygon",
    "id": "relation/1767393"
   },
   "geometry": {
    "type": "Point",
    "coordinates": [
     1.3457662402777786,
     52.66661379166668
    ]
   }
  },
  {
   "type": "Feature",
   "id": "relation/1769752",
   "properties": {
    "access": "permissive",
    "foot": "permissive",
    "leisure": "park",
    "name": "Catton Park - Open Access Area",
    "operator": "Catton Park Trust",
    "type": "multipolygon",
    "url": "http://www.cattonpark.com/",
    "id": "relation/1769752"
   },
   "geometry": {
    "type": "Point",
    "coordinates": [
     1.2969162442105262,
     52.65858324842107
    ]
   }
  },
  {
   "type": "Feature",
   "id": "relation/1776819",
   "properties": {
    "dogs": "no",
    "leisure": "park",
    "name": "Wensum Park",
    "type": "multipolygon",
    "id": "relation/1776819"
   },
   "geometry": {
    "type": "Point",
    "coordinates": [
     1.2857304695652174,
     52.640602593478256
    ]
   }
  },
  {
   "type": "Feature",
   "id": "relation/1777943",
   "properties": {
    "leisure": "garden",
    "name": "Mile Cross Gardens",
    "operator": "Norwich City Council",
    "type": "multipolygon",
    "id": "relation/1777943"
   },
   "geometry": {
    "type": "Point",
    "coordinates": [
     1.2782569142857145,
     52.65414104285714
    ]
   }
  },
  {
   "type": "Feature",
   "id": "relation/1777948",
   "properties": {
    "leisure": "playground",
    "type": "multipolygon",
    "id": "relation/1777948"
   },
   "geometry": {
    "type": "Point",
    "coordinates": [
     1.2740497,
     52.64979664444445
    ]
   }
  },
  {
   "type": "Feature",
   "id": "relation/1777949",
   "properties": {
    "leisure": "playground",
    "type": "multipolygon",
    "id": "relation/1777949"
   },
   "geometry": {
    "type": "Point",
    "coordinates": [
     1.268603257142857,
     52.65338824285715
    ]
   }
  },
  {
   "type": "Feature",
   "id": "relation/1779754",
   "properties": {
    "leisure": "park",
    "name": "Sewell Park",
    "type": "multipolygon",
    "wikidata": "Q7458226",
    "id": "relation/1779754"
   },
   "geometry": {
    "type": "Point",
    "coordinates": [
     1.2977156,
     52.64588297826087
    ]
   }
  },
  {
   "type": "Feature",
   "id": "relation/1779755",
   "properties": {
    "leisure": "park",
    "name": "Waterloo Park",
    "type": "multipolygon",
    "id": "relation/1779755"
   },
   "geometry": {
    "type": "Point",
    "coordinates": [
     1.290126103703704,
     52.645062166666676
    ]
   }
  },
  {
   "type": "Feature",
   "id": "relation/1780809",
   "properties": {
    "leisure": "park",
    "name": "Pointer's Field",
    "type": "multipolygon",
    "id": "relation/1780809"
   },
   "geometry": {
    "type": "Point",
    "coordinates": [
     1.2853191958333334,
     52.64812736666665
    ]
   }
  },
  {
   "type": "Feature",
   "id": "relation/1794231",
   "properties": {
    "leisure": "playground",
    "type": "multipolygon",
    "id": "relation/1794231"
   },
   "geometry": {
    "type": "Point",
    "coordinates": [
     1.2108851428571428,
     52.687075085714284
    ]
   }
  },
  {
   "type": "Feature",
   "id": "relation/1794797",
   "properties": {
    "leisure": "park",
    "name": "Ketts Heights",
    "natural": "wood",
    "type": "multipolygon",
    "id": "relation/1794797"
   },
   "geometry": {
    "type": "Point",
    "coordinates": [
     1.3121367896551723,
     52.633144289655185
    ]
   }
  },
  {
   "type": "Feature",
   "id": "relation/1794798",
   "properties": {
    "leisure": "park",
    "name": "Woodrow Pilling Park",
    "source:name": "OS_OpenData_StreetView",
    "type": "multipolygon",
    "id": "relation/1794798"
   },
   "geometry": {
    "type": "Point",
    "coordinates": [
     1.3268913666666668,
     52.63070003750001
    ]
   }
  },
  {
   "type": "Feature",
   "id": "relation/1794813",
   "properties": {
    "leisure": "playground",
    "type": "multipolygon",
    "id": "relation/1794813"
   },
   "geometry": {
    "type": "Point",
    "coordinates": [
     1.3276178399999998,
     52.631577879999995
    ]
   }
  },
  {
   "type": "Feature",
   "id": "relation/1804192",
   "properties": {
    "leisure": "sports_centre",
    "type": "multipolygon",
    "id": "relation/1804192"
   },
   "geometry": {
    "type": "Point",
    "coordinates": [
     1.3116590833333333,
     52.62142185
    ]
   }
  },
  {
   "type": "Feature",
   "id": "relation/1804775",
   "properties": {
    "bicycle": "no",
    "dog": "no",
    "leisure": "park",
    "motor_vehicle": "no",
    "name": "Sparhawk Park",
    "operator": "Srowston Parish Council",
    "source": "survey",
    "type": "multipolygon",
    "id": "relation/1804775"
   },
   "geometry": {
    "type": "Point",
    "coordinates": [
     1.3282753538461536,
     52.65655758461538
    ]
   }
  },
  {
   "type": "Feature",
   "id": "relation/1804779",
   "properties": {
    "leisure": "playground",
    "type": "multipolygon",
    "id": "relation/1804779"
   },
   "geometry": {
    "type": "Point",
    "coordinates": [
     1.2606157666666666,
     52.6643516
    ]
   }
  },
  {
   "type": "Feature",
   "id": "relation/1812987",
   "properties": {
    "landuse": "recreation_ground",
    "leisure": "park",
    "name": "Barkers Lane Recreation Area",
    "type": "multipolygon",
    "id": "relation/1812987"
   },
   "geometry": {
    "type": "Point",
    "coordinates": [
     1.3217675951612902,
     52.663333524193554
    ]
   }
  },
  {
   "type": "Feature",
   "id": "relation/1846115",
   "properties": {
    "layer": "-1",
    "leisure": "park",
    "name": "Chapelfield Gardens",
    "type": "multipolygon",
    "id": "relation/1846115"
   },
   "geometry": {
    "type": "Point",
    "coordinates": [
     1.2870465458015263,
     52.62778537709922
    ]
   }
  },
  {
   "type": "Feature",
   "id": "relation/1863885",
   "properties": {
    "leisure": "sports_centre",
    "name": "Sprowston Sports and Social Club",
    "type": "multipolygon",
    "id": "relation/1863885"
   },
   "geometry": {
    "type": "Point",
    "coordinates": [
     1.3408800125,
     52.6563160375
    ]
   }
  },
  {
   "type": "Feature",
   "id": "relation/1969633",
   "properties": {
    "leisure": "marina",
    "type": "multipolygon",
    "id": "relation/1969633"
   },
   "geometry": {
    "type": "Point",
    "coordinates": [
     1.418819173333333,
     52.62210881333333
    ]
   }
  },
  {
   "type": "Feature",
   "id": "relation/1969634",
   "properties": {
    "leisure": "marina",
    "type": "multipolygon",
    "id": "relation/1969634"
   },
   "geometry": {
    "type": "Point",
    "coordinates": [
     1.4165143304347823,
     52.6216440652174
    ]
   }
  },
  {
   "type": "Feature",
   "id": "relation/2016905",
   "properties": {
    "designation": "local_nature_reserve;access_land",
    "foot": "yes",
    "landuse": "meadow",
    "leisure": "nature_reserve",
    "name": "Cary's Meadow, Local Nature Reserve",
    "type": "multipolygon",
    "id": "relation/2016905"
   },
   "geometry": {
    "type": "Point",
    "coordinates": [
     1.3280040033333331,
     52.62574784
    ]
   }
  },
  {
   "type": "Feature",
   "id": "relation/2097297",
   "properties": {
    "leisure": "playground",
    "name": "Fourways Community Play Area",
    "type": "multipolygon",
    "id": "relation/2097297"
   },
   "geometry": {
    "type": "Point",
    "coordinates": [
     1.2340223111111113,
     52.639351759259256
    ]
   }
  },
  {
   "type": "Feature",
   "id": "relation/2133179",
   "properties": {
    "leisure": "track",
    "sport": "cycling",
    "type": "multipolygon",
    "id": "relation/2133179"
   },
   "geometry": {
    "type": "Point",
    "coordinates": [
     1.177184254545455,
     52.59839463939393
    ]
   }
  },
  {
   "type": "Feature",
   "id": "relation/2197284",
   "properties": {
    "leisure": "pitch",
    "sport": "bowls",
    "type": "multipolygon",
    "id": "relation/2197284"
   },
   "geometry": {
    "type": "Point",
    "coordinates": [
     1.4377737666666668,
     52.65338517777778
    ]
   }
  },
  {
   "type": "Feature",
   "id": "relation/2213241",
   "properties": {
    "designation": "open_access_land",
    "foot": "designated",
    "leisure": "common",
    "name": "Swardeston Common - Open Access Land",
    "note": "Area of Open Access Land, no restrictions that I know of.",
    "type": "multipolygon",
    "id": "relation/2213241"
   },
   "geometry": {
    "type": "Point",
    "coordinates": [
     1.246135931325301,
     52.58040545180722
    ]
   }
  },
  {
   "type": "Feature",
   "id": "relation/2248892",
   "properties": {
    "leisure": "park",
    "name": "Wensum View Park",
    "source": "survey;Green Party leaflet",
    "type": "multipolygon",
    "id": "relation/2248892"
   },
   "geometry": {
    "type": "Point",
    "coordinates": [
     1.26794919,
     52.63604862999999
    ]
   }
  },
  {
   "type": "Feature",
   "id": "relation/2446627",
   "properties": {
    "leisure": "pitch",
    "sport": "bowls",
    "type": "multipolygon",
    "id": "relation/2446627"
   },
   "geometry": {
    "type": "Point",
    "coordinates": [
     1.1768203750000001,
     52.598535137499994
    ]
   }
  },
  {
   "type": "Feature",
   "id": "relation/3267539",
   "properties": {
    "addr:city": "Norwich",
    "addr:housenumber": "75",
    "addr:postcode": "NR1 1DG",
    "addr:street": "Prince Of Wales Road",
    "amenity": "nightclub",
    "fhrs:id": "915681",
    "name": "Fetch",
    "old_name": "Flaunt",
    "phone": "+44 1603 627666",
    "source:addr": "FHRS Open Data",
    "type": "multipolygon",
    "website": "https://fetchnorwich.com/",
    "id": "relation/3267539"
   },
   "geometry": {
    "type": "Point",
    "coordinates": [
     1.3027501874999998,
     52.62872343750001
    ]
   }
  },
  {
   "type": "Feature",
   "id": "relation/3461931",
   "properties": {
    "building": "hall",
    "name": "Gym and Sports Hall",
    "sport": "multi",
    "type": "multipolygon",
    "id": "relation/3461931"
   },
   "geometry": {
    "type": "Point",
    "coordinates": [
     1.1828736555555557,
     52.60043455555556
    ]
   }
  },
  {
   "type": "Feature",
   "id": "relation/4203124",
   "properties": {
    "leisure": "playground",
    "type": "multipolygon",
    "id": "relation/4203124"
   },
   "geometry": {
    "type": "Point",
    "coordinates": [
     1.2184432307692306,
     52.64901957692307
    ]
   }
  },
  {
   "type": "Feature",
   "id": "relation/4233968",
   "properties": {
    "leisure": "playground",
    "type": "multipolygon",
    "website": "http://little-melton.org.uk/",
    "id": "relation/4233968"
   },
   "geometry": {
    "type": "Point",
    "coordinates": [
     1.1836037,
     52.6181634
    ]
   }
  },
  {
   "type": "Feature",
   "id": "relation/7245340",
   "properties": {
    "leisure": "park",
    "surface": "grass",
    "type": "multipolygon",
    "id": "relation/7245340"
   },
   "geometry": {
    "type": "Point",
    "coordinates": [
     1.2543233555555555,
     52.61855374074074
    ]
   }
  },
  {
   "type": "Feature",
   "id": "relation/8009869",
   "properties": {
    "leisure": "park",
    "type": "multipolygon",
    "id": "relation/8009869"
   },
   "geometry": {
    "type": "Point",
    "coordinates": [
     1.301421877777778,
     52.62110087777778
    ]
   }
  },
  {
   "type": "Feature",
   "id": "relation/8180226",
   "properties": {
    "landuse": "meadow",
    "leisure": "common",
    "name": "Eaton Common - Open Access Land",
    "type": "multipolygon",
    "id": "relation/8180226"
   },
   "geometry": {
    "type": "Point",
    "coordinates": [
     1.2608682940476188,
     52.598782621428576
    ]
   }
  },
  {
   "type": "Feature",
   "id": "relation/8441699",
   "properties": {
    "leisure": "park",
    "type": "multipolygon",
    "id": "relation/8441699"
   },
   "geometry": {
    "type": "Point",
    "coordinates": [
     1.2319464653846153,
     52.60891358076924
    ]
   }
  },
  {
   "type": "Feature",
   "id": "way/30693590",
   "properties": {
    "leisure": "pitch",
    "name": "Eaton Park",
    "sport": "tennis",
    "id": "way/30693590"
   },
   "geometry": {
    "type": "Point",
    "coordinates": [
     1.25877592,
     52.61900766
    ]
   }
  },
  {
   "type": "Feature",
   "id": "way/30708220",
   "properties": {
    "leisure": "pitch",
    "sport": "bowls",
    "id": "way/30708220"
   },
   "geometry": {
    "type": "Point",
    "coordinates": [
     1.25995452,
     52.620076940000004
    ]
   }
  },
  {
   "type": "Feature",
   "id": "way/30708221",
   "properties": {
    "leisure": "miniature_golf",
    "id": "way/30708221"
   },
   "geometry": {
    "type": "Point",
    "coordinates": [
     1.2597610499999998,
     52.62130196666666
    ]
   }
  },
  {
   "type": "Feature",
   "id": "way/30708222",
   "properties": {
    "leisure": "park",
    "id": "way/30708222"
   },
   "geometry": {
    "type": "Point",
    "coordinates": [
     1.257735618181818,
     52.62089006363636
    ]
   }
  },
  {
   "type": "Feature",
   "id": "way/30727501",
   "properties": {
    "landuse": "recreation_ground",
    "sport": "soccer",
    "id": "way/30727501"
   },
   "geometry": {
    "type": "Point",
    "coordinates": [
     1.2548855272727275,
     52.61992289090909
    ]
   }
  },
  {
   "type": "Feature",
   "id": "way/30737747",
   "properties": {
    "leisure": "track",
    "name": "Cycle Speedway Track",
    "id": "way/30737747"
   },
   "geometry": {
    "type": "Point",
    "coordinates": [
     1.2535197227272727,
     52.62142570909091
    ]
   }
  },
  {
   "type": "Feature",
   "id": "way/30737756",
   "properties": {
    "leisure": "garden",
    "id": "way/30737756"
   },
   "geometry": {
    "type": "Point",
    "coordinates": [
     1.2610604999999997,
     52.62099865384615
    ]
   }
  },
  {
   "type": "Feature",
   "id": "way/30737757",
   "properties": {
    "leisure": "garden",
    "id": "way/30737757"
   },
   "geometry": {
    "type": "Point",
    "coordinates": [
     1.2614451461538463,
     52.62089713846154
    ]
   }
  },
  {
   "type": "Feature",
   "id": "way/30737758",
   "properties": {
    "leisure": "garden",
    "id": "way/30737758"
   },
   "geometry": {
    "type": "Point",
    "coordinates": [
     1.2607265583333331,
     52.62085174166666
    ]
   }
  },
  {
   "type": "Feature",
   "id": "way/30737760",
   "properties": {
    "leisure": "garden",
    "id": "way/30737760"
   },
   "geometry": {
    "type": "Point",
    "coordinates": [
     1.2607786384615383,
     52.620597446153845
    ]
   }
  },
  {
   "type": "Feature",
   "id": "way/30737761",
   "properties": {
    "leisure": "garden",
    "id": "way/30737761"
   },
   "geometry": {
    "type": "Point",
    "coordinates": [
     1.2611448727272727,
     52.620501872727274
    ]
   }
  },
  {
   "type": "Feature",
   "id": "way/30737762",
   "properties": {
    "leisure": "garden",
    "id": "way/30737762"
   },
   "geometry": {
    "type": "Point",
    "coordinates": [
     1.2614870500000002,
     52.62064873333335
    ]
   }
  },
  {
   "type": "Feature",
   "id": "way/30737839",
   "properties": {
    "leisure": "pitch",
    "sport": "skateboard",
    "id": "way/30737839"
   },
   "geometry": {
    "type": "Point",
    "coordinates": [
     1.25336205,
     52.61901465
    ]
   }
  },
  {
   "type": "Feature",
   "id": "way/30737840",
   "properties": {
    "leisure": "pitch",
    "sport": "basketball",
    "id": "way/30737840"
   },
   "geometry": {
    "type": "Point",
    "coordinates": [
     1.25301442,
     52.618945280000005
    ]
   }
  },
  {
   "type": "Feature",
   "id": "way/30912630",
   "properties": {
    "leisure": "pitch",
    "note": "Used for 5-a-side football but configured primarily for hockey",
    "sport": "hockey;soccer",
    "id": "way/30912630"
   },
   "geometry": {
    "type": "Point",
    "coordinates": [
     1.241128175,
     52.62616385
    ]
   }
  },
  {
   "type": "Feature",
   "id": "way/30912631",
   "properties": {
    "leisure": "pitch",
    "note": "Used for 5-a-side football but configured primarily for hockey",
    "sport": "hockey;soccer",
    "id": "way/30912631"
   },
   "geometry": {
    "type": "Point",
    "coordinates": [
     1.2421527500000002,
     52.62621395
    ]
   }
  },
  {
   "type": "Feature",
   "id": "way/30912635",
   "properties": {
    "leisure": "pitch",
    "sport": "tennis",
    "id": "way/30912635"
   },
   "geometry": {
    "type": "Point",
    "coordinates": [
     1.24258425,
     52.62689885
    ]
   }
  },
  {
   "type": "Feature",
   "id": "way/30912669",
   "properties": {
    "leisure": "pitch",
    "sport": "cricket",
    "id": "way/30912669"
   },
   "geometry": {
    "type": "Point",
    "coordinates": [
     1.224983575,
     52.6220878
    ]
   }
  },
  {
   "type": "Feature",
   "id": "way/30912671",
   "properties": {
    "leisure": "pitch",
    "sport": "cricket",
    "id": "way/30912671"
   },
   "geometry": {
    "type": "Point",
    "coordinates": [
     1.2250299,
     52.62089885
    ]
   }
  },
  {
   "type": "Feature",
   "id": "way/30912672",
   "properties": {
    "leisure": "pitch",
    "sport": "soccer",
    "id": "way/30912672"
   },
   "geometry": {
    "type": "Point",
    "coordinates": [
     1.224334475,
     52.62080507500001
    ]
   }
  },
  {
   "type": "Feature",
   "id": "way/30912673",
   "properties": {
    "leisure": "pitch",
    "sport": "soccer",
    "id": "way/30912673"
   },
   "geometry": {
    "type": "Point",
    "coordinates": [
     1.224754375,
     52.61979165
    ]
   }
  },
  {
   "type": "Feature",
   "id": "way/31016838",
   "properties": {
    "leisure": "pitch",
    "sport": "multi",
    "id": "way/31016838"
   },
   "geometry": {
    "type": "Point",
    "coordinates": [
     1.2835800499999999,
     52.62447545
    ]
   }
  },
  {
   "type": "Feature",
   "id": "way/31016839",
   "properties": {
    "leisure": "playground",
    "name": "The Jenny Lind Play Ground for Children",
    "id": "way/31016839"
   },
   "geometry": {
    "type": "Point",
    "coordinates": [
     1.2829240076923076,
     52.62411023076924
    ]
   }
  },
  {
   "type": "Feature",
   "id": "way/31062634",
   "properties": {
    "leisure": "pitch",
    "sport": "tennis",
    "id": "way/31062634"
   },
   "geometry": {
    "type": "Point",
    "coordinates": [
     1.2491183499999998,
     52.602864025
    ]
   }
  },
  {
   "type": "Feature",
   "id": "way/31062636",
   "properties": {
    "leisure": "pitch",
    "sport": "tennis",
    "id": "way/31062636"
   },
   "geometry": {
    "type": "Point",
    "coordinates": [
     1.24871775,
     52.60230385
    ]
   }
  },
  {
   "type": "Feature",
   "id": "way/31062637",
   "properties": {
    "leisure": "pitch",
    "sport": "soccer",
    "id": "way/31062637"
   },
   "geometry": {
    "type": "Point",
    "coordinates": [
     1.2499594,
     52.6024138
    ]
   }
  },
  {
   "type": "Feature",
   "id": "way/31062638",
   "properties": {
    "leisure": "pitch",
    "sport": "cricket",
    "id": "way/31062638"
   },
   "geometry": {
    "type": "Point",
    "coordinates": [
     1.249708825,
     52.60199035
    ]
   }
  },
  {
   "type": "Feature",
   "id": "way/31062639",
   "properties": {
    "leisure": "pitch",
    "name": "5-a-side",
    "sport": "soccer",
    "id": "way/31062639"
   },
   "geometry": {
    "type": "Point",
    "coordinates": [
     1.2491102250000001,
     52.601601949999996
    ]
   }
  },
  {
   "type": "Feature",
   "id": "way/31062640",
   "properties": {
    "leisure": "pitch",
    "name": "5-a-side",
    "sport": "soccer",
    "id": "way/31062640"
   },
   "geometry": {
    "type": "Point",
    "coordinates": [
     1.249671825,
     52.601456475000006
    ]
   }
  },
  {
   "type": "Feature",
   "id": "way/31062641",
   "properties": {
    "leisure": "playground",
    "id": "way/31062641"
   },
   "geometry": {
    "type": "Point",
    "coordinates": [
     1.2483058,
     52.601753824999996
    ]
   }
  },
  {
   "type": "Feature",
   "id": "way/31136539",
   "properties": {
    "barrier": "fence",
    "leisure": "pitch",
    "sport": "tennis",
    "id": "way/31136539"
   },
   "geometry": {
    "type": "Point",
    "coordinates": [
     1.279476125,
     52.6151615
    ]
   }
  },
  {
   "type": "Feature",
   "id": "way/31136540",
   "properties": {
    "barrier": "fence",
    "leisure": "pitch",
    "sport": "tennis",
    "id": "way/31136540"
   },
   "geometry": {
    "type": "Point",
    "coordinates": [
     1.2791367999999999,
     52.614886675
    ]
   }
  },
  {
   "type": "Feature",
   "id": "way/31136541",
   "properties": {
    "barrier": "fence",
    "leisure": "pitch",
    "sport": "tennis",
    "id": "way/31136541"
   },
   "geometry": {
    "type": "Point",
    "coordinates": [
     1.2788591,
     52.61464025
    ]
   }
  },
  {
   "type": "Feature",
   "id": "way/31136542",
   "properties": {
    "barrier": "fence",
    "leisure": "pitch",
    "sport": "tennis",
    "id": "way/31136542"
   },
   "geometry": {
    "type": "Point",
    "coordinates": [
     1.2784591,
     52.6148904
    ]
   }
  },
  {
   "type": "Feature",
   "id": "way/31469686",
   "properties": {
    "leisure": "pitch",
    "sport": "rugby",
    "id": "way/31469686"
   },
   "geometry": {
    "type": "Point",
    "coordinates": [
     1.22950985,
     52.61915629999999
    ]
   }
  },
  {
   "type": "Feature",
   "id": "way/31469690",
   "properties": {
    "leisure": "pitch",
    "sport": "soccer",
    "id": "way/31469690"
   },
   "geometry": {
    "type": "Point",
    "coordinates": [
     1.228724625,
     52.620353050000006
    ]
   }
  },
  {
   "type": "Feature",
   "id": "way/31469760",
   "properties": {
    "leisure": "pitch",
    "sport": "rugby",
    "id": "way/31469760"
   },
   "geometry": {
    "type": "Point",
    "coordinates": [
     1.23049085,
     52.617979874999996
    ]
   }
  },
  {
   "type": "Feature",
   "id": "way/31760800",
   "properties": {
    "leisure": "playground",
    "id": "way/31760800"
   },
   "geometry": {
    "type": "Point",
    "coordinates": [
     1.2175453499999997,
     52.631535233333324
    ]
   }
  },
  {
   "type": "Feature",
   "id": "way/31761218",
   "properties": {
    "leisure": "playground",
    "id": "way/31761218"
   },
   "geometry": {
    "type": "Point",
    "coordinates": [
     1.208571466666667,
     52.6415303
    ]
   }
  },
  {
   "type": "Feature",
   "id": "way/31979165",
   "properties": {
    "access": "yes",
    "hoops": "2",
    "leisure": "pitch",
    "sport": "basketball",
    "id": "way/31979165"
   },
   "geometry": {
    "type": "Point",
    "coordinates": [
     1.2340665999999998,
     52.63937604
    ]
   }
  },
  {
   "type": "Feature",
   "id": "way/32070333",
   "properties": {
    "leisure": "garden",
    "name": "Pub Garden",
    "operator": "The Cellar House",
    "id": "way/32070333"
   },
   "geometry": {
    "type": "Point",
    "coordinates": [
     1.25252214,
     52.60876596000001
    ]
   }
  },
  {
   "type": "Feature",
   "id": "way/32087992",
   "properties": {
    "addr:city": "Norwich",
    "addr:housename": "Wensum Sports Centre Charitable Association",
    "addr:housenumber": "169a",
    "addr:postcode": "NR1 1QH",
    "addr:street": "King Street",
    "building": "yes",
    "email": "wensumsports@yahoo.co.uk",
    "leisure": "sports_centre",
    "name": "Wensum Sports Centre Charitable Association",
    "opening_hours": "Mo-Fr 09:00-22:00; Sa-Su 09:00-17:00",
    "phone": "+44 1603 568823",
    "sport": "multi;badminton;squash;table_tennis;football;pickleball;fitness;mixed_martial_arts",
    "website": "www.wensumsports.com",
    "id": "way/32087992"
   },
   "geometry": {
    "type": "Point",
    "coordinates": [
     1.3032812999999999,
     52.623386816666674
    ]
   }
  },
  {
   "type": "Feature",
   "id": "way/32561189",
   "properties": {
    "addr:city": "Norwich",
    "addr:country": "GB",
    "addr:locality": "Longwater Business Park",
    "addr:postcode": "NR5 0JS",
    "addr:street": "William Frost Way",
    "building": "yes",
    "email": "gm.norwichwest@bannatyne.co.uk",
    "leisure": "fitness_centre",
    "name": "Bannatyne",
    "opening_hours": "Mo-Th 06:30-22:00; Fr 06:30-21:00; Sa-Su 08:00-20:00",
    "website": "https://www.bannatyne.co.uk/health-club/norwich-west",
    "id": "way/32561189"
   },
   "geometry": {
    "type": "Point",
    "coordinates": [
     1.1857757249999998,
     52.65425425000001
    ]
   }
  },
  {
   "type": "Feature",
   "id": "way/32561231",
   "properties": {
    "addr:city": "Norwich",
    "addr:country": "GB",
    "addr:housename": "Costessey Park Golf Club",
    "addr:postcode": "NR8 5AL",
    "email": "enquiry@costesseypark.com",
    "fax": "+44 1603 746185",
    "leisure": "golf_course",
    "name": "Costessey Park Golf Course",
    "phone": "+44 1603 746333",
    "sport": "golf",
    "website": "http://www.costesseypark.com/",
    "id": "way/32561231"
   },
   "geometry": {
    "type": "Point",
    "coordinates": [
     1.1953569745762713,
     52.65760460169493
    ]
   }
  },
  {
   "type": "Feature",
   "id": "way/32688129",
   "properties": {
    "leisure": "pitch",
    "sport": "tennis",
    "id": "way/32688129"
   },
   "geometry": {
    "type": "Point",
    "coordinates": [
     1.215751475,
     52.625139950000005
    ]
   }
  },
  {
   "type": "Feature",
   "id": "way/34321797",
   "properties": {
    "layer": "-1",
    "leisure": "nature_reserve",
    "name": "Colney Woodland Burial Park",
    "url": "https://www.greenacrescelebrate.co.uk/park/colney/",
    "id": "way/34321797"
   },
   "geometry": {
    "type": "Point",
    "coordinates": [
     1.1992929444444447,
     52.627027094444436
    ]
   }
  },
  {
   "type": "Feature",
   "id": "way/34586923",
   "properties": {
    "building": "yes",
    "leisure": "sports_centre",
    "name": "Sportspark",
    "opening_hours": "Mo-Su 07:30-22:20",
    "sport": "multi",
    "url": "http://www.sportspark.co.uk/",
    "id": "way/34586923"
   },
   "geometry": {
    "type": "Point",
    "coordinates": [
     1.2410965,
     52.624161336363635
    ]
   }
  },
  {
   "type": "Feature",
   "id": "way/37333474",
   "properties": {
    "leisure": "park",
    "name": "Wenum Community Centre Gardens",
    "surface": "grass",
    "id": "way/37333474"
   },
   "geometry": {
    "type": "Point",
    "coordinates": [
     1.27064373,
     52.63701402
    ]
   }
  },
  {
   "type": "Feature",
   "id": "way/37333487",
   "properties": {
    "leisure": "pitch",
    "sport": "tennis",
    "id": "way/37333487"
   },
   "geometry": {
    "type": "Point",
    "coordinates": [
     1.2745311000000001,
     52.635760983333334
    ]
   }
  },
  {
   "type": "Feature",
   "id": "way/38622926",
   "properties": {
    "leisure": "playground",
    "surface": "sand",
    "id": "way/38622926"
   },
   "geometry": {
    "type": "Point",
    "coordinates": [
     1.285616775,
     52.64152603749999
    ]
   }
  },
  {
   "type": "Feature",
   "id": "way/38816092",
   "properties": {
    "leisure": "playground",
    "id": "way/38816092"
   },
   "geometry": {
    "type": "Point",
    "coordinates": [
     1.2798582555555553,
     52.645850188888886
    ]
   }
  },
  {
   "type": "Feature",
   "id": "way/39257113",
   "properties": {
    "leisure": "playground",
    "id": "way/39257113"
   },
   "geometry": {
    "type": "Point",
    "coordinates": [
     1.2785294692307696,
     52.618992300000016
    ]
   }
  },
  {
   "type": "Feature",
   "id": "way/40507570",
   "properties": {
    "leisure": "pitch",
    "sport": "tennis",
    "id": "way/40507570"
   },
   "geometry": {
    "type": "Point",
    "coordinates": [
     1.28734036,
     52.64487944
    ]
   }
  },
  {
   "type": "Feature",
   "id": "way/40507575",
   "properties": {
    "leisure": "pitch",
    "sport": "tennis",
    "id": "way/40507575"
   },
   "geometry": {
    "type": "Point",
    "coordinates": [
     1.2877391399999998,
     52.645008059999995
    ]
   }
  },
  {
   "type": "Feature",
   "id": "way/40507577",
   "properties": {
    "leisure": "pitch",
    "sport": "boules",
    "id": "way/40507577"
   },
   "geometry": {
    "type": "Point",
    "coordinates": [
     1.2903163428571427,
     52.645392914285715
    ]
   }
  },
  {
   "type": "Feature",
   "id": "way/40507578",
   "properties": {
    "leisure": "pitch",
    "sport": "boules",
    "id": "way/40507578"
   },
   "geometry": {
    "type": "Point",
    "coordinates": [
     1.290276875,
     52.64501224999999
    ]
   }
  },
  {
   "type": "Feature",
   "id": "way/40507579",
   "properties": {
    "leisure": "pitch",
    "sport": "boules",
    "id": "way/40507579"
   },
   "geometry": {
    "type": "Point",
    "coordinates": [
     1.29032855,
     52.644523400000004
    ]
   }
  },
  {
   "type": "Feature",
   "id": "way/40507580",
   "properties": {
    "leisure": "pitch",
    "sport": "multi",
    "id": "way/40507580"
   },
   "geometry": {
    "type": "Point",
    "coordinates": [
     1.2891071176470588,
     52.64366081176471
    ]
   }
  },
  {
   "type": "Feature",
   "id": "way/40507581",
   "properties": {
    "leisure": "pitch",
    "sport": "multi",
    "id": "way/40507581"
   },
   "geometry": {
    "type": "Point",
    "coordinates": [
     1.2877815333333333,
     52.644544599999996
    ]
   }
  },
  {
   "type": "Feature",
   "id": "way/40507582",
   "properties": {
    "leisure": "pitch",
    "sport": "multi",
    "id": "way/40507582"
   },
   "geometry": {
    "type": "Point",
    "coordinates": [
     1.28803985,
     52.64532499999999
    ]
   }
  },
  {
   "type": "Feature",
   "id": "way/40507583",
   "properties": {
    "leisure": "pitch",
    "sport": "soccer",
    "id": "way/40507583"
   },
   "geometry": {
    "type": "Point",
    "coordinates": [
     1.2890787833333333,
     52.645776033333334
    ]
   }
  },
  {
   "type": "Feature",
   "id": "way/40507589",
   "properties": {
    "leisure": "playground",
    "id": "way/40507589"
   },
   "geometry": {
    "type": "Point",
    "coordinates": [
     1.2902932318181817,
     52.64407280681819
    ]
   }
  },
  {
   "type": "Feature",
   "id": "way/42923094",
   "properties": {
    "building": "hall",
    "name": "Hethersett Old Hall School Sports Hall",
    "sport": "multi",
    "id": "way/42923094"
   },
   "geometry": {
    "type": "Point",
    "coordinates": [
     1.1765217857142858,
     52.59304015714286
    ]
   }
  },
  {
   "type": "Feature",
   "id": "way/42923096",
   "properties": {
    "leisure": "pitch",
    "sport": "tennis",
    "id": "way/42923096"
   },
   "geometry": {
    "type": "Point",
    "coordinates": [
     1.174664725,
     52.59163615
    ]
   }
  },
  {
   "type": "Feature",
   "id": "way/43204577",
   "properties": {
    "leisure": "playground",
    "id": "way/43204577"
   },
   "geometry": {
    "type": "Point",
    "coordinates": [
     1.2632430199999998,
     52.60599096000001
    ]
   }
  },
  {
   "type": "Feature",
   "id": "way/43204578",
   "properties": {
    "leisure": "playground",
    "id": "way/43204578"
   },
   "geometry": {
    "type": "Point",
    "coordinates": [
     1.2656152999999999,
     52.60560594
    ]
   }
  },
  {
   "type": "Feature",
   "id": "way/43204579",
   "properties": {
    "leisure": "playground",
    "id": "way/43204579"
   },
   "geometry": {
    "type": "Point",
    "coordinates": [
     1.2657618166666669,
     52.60461266666666
    ]
   }
  },
  {
   "type": "Feature",
   "id": "way/43269219",
   "properties": {
    "leisure": "pitch",
    "sport": "tennis",
    "id": "way/43269219"
   },
   "geometry": {
    "type": "Point",
    "coordinates": [
     1.30712225,
     52.613379025
    ]
   }
  },
  {
   "type": "Feature",
   "id": "way/43269256",
   "properties": {
    "barrier": "fence",
    "fence_type": "chain_link",
    "height": "2.5",
    "leisure": "pitch",
    "sport": "multi",
    "id": "way/43269256"
   },
   "geometry": {
    "type": "Point",
    "coordinates": [
     1.3196511000000002,
     52.6100731
    ]
   }
  },
  {
   "type": "Feature",
   "id": "way/47153708",
   "properties": {
    "leisure": "pitch",
    "sport": "soccer",
    "id": "way/47153708"
   },
   "geometry": {
    "type": "Point",
    "coordinates": [
     1.31431075,
     52.640955500000004
    ]
   }
  },
  {
   "type": "Feature",
   "id": "way/47196426",
   "properties": {
    "leisure": "pitch",
    "sport": "soccer",
    "id": "way/47196426"
   },
   "geometry": {
    "type": "Point",
    "coordinates": [
     1.3143762,
     52.6384073
    ]
   }
  },
  {
   "type": "Feature",
   "id": "way/48547965",
   "properties": {
    "leisure": "pitch",
    "sport": "bowls",
    "id": "way/48547965"
   },
   "geometry": {
    "type": "Point",
    "coordinates": [
     1.2680129,
     52.6260581
    ]
   }
  },
  {
   "type": "Feature",
   "id": "way/48547967",
   "properties": {
    "leisure": "pitch",
    "sport": "bowls",
    "id": "way/48547967"
   },
   "geometry": {
    "type": "Point",
    "coordinates": [
     1.2672986,
     52.625339200000006
    ]
   }
  },
  {
   "type": "Feature",
   "id": "way/48547972",
   "properties": {
    "leisure": "pitch",
    "sport": "tennis",
    "id": "way/48547972"
   },
   "geometry": {
    "type": "Point",
    "coordinates": [
     1.26727956,
     52.62586470000001
    ]
   }
  },
  {
   "type": "Feature",
   "id": "way/48547974",
   "properties": {
    "highway": "track",
    "leisure": "playground",
    "tracktype": "grade1",
    "id": "way/48547974"
   },
   "geometry": {
    "type": "Point",
    "coordinates": [
     1.2691569,
     52.6258502
    ]
   }
  },
  {
   "type": "Feature",
   "id": "way/48549177",
   "properties": {
    "leisure": "park",
    "name": "Heigham Park",
    "id": "way/48549177"
   },
   "geometry": {
    "type": "Point",
    "coordinates": [
     1.267653,
     52.625554599999994
    ]
   }
  },
  {
   "type": "Feature",
   "id": "way/48579750",
   "properties": {
    "addr:city": "Norwich",
    "addr:country": "GB",
    "addr:housename": "Unit 1a",
    "addr:postcode": "NR1 1XA",
    "addr:street": "Wherry Road",
    "amenity": "cinema",
    "building": "yes",
    "fhrs:id": "84059",
    "name": "Odeon Norwich",
    "website": "https://www.odeon.co.uk/",
    "wikidata": "Q39413422",
    "id": "way/48579750"
   },
   "geometry": {
    "type": "Point",
    "coordinates": [
     1.30492225,
     52.62514391249999
    ]
   }
  },
  {
   "type": "Feature",
   "id": "way/49790715",
   "properties": {
    "leisure": "pitch",
    "sport": "cricket",
    "surface": "grass",
    "id": "way/49790715"
   },
   "geometry": {
    "type": "Point",
    "coordinates": [
     1.27369335,
     52.615428449999996
    ]
   }
  },
  {
   "type": "Feature",
   "id": "way/49790718",
   "properties": {
    "leisure": "pitch",
    "sport": "cricket_nets",
    "id": "way/49790718"
   },
   "geometry": {
    "type": "Point",
    "coordinates": [
     1.2723881499999998,
     52.615625675
    ]
   }
  },
  {
   "type": "Feature",
   "id": "way/51445662",
   "properties": {
    "leisure": "pitch",
    "sport": "soccer",
    "id": "way/51445662"
   },
   "geometry": {
    "type": "Point",
    "coordinates": [
     1.35286325,
     52.634142
    ]
   }
  },
  {
   "type": "Feature",
   "id": "way/51445667",
   "properties": {
    "leisure": "pitch",
    "sport": "bowls",
    "id": "way/51445667"
   },
   "geometry": {
    "type": "Point",
    "coordinates": [
     1.3541805,
     52.63502075
    ]
   }
  },
  {
   "type": "Feature",
   "id": "way/51445671",
   "properties": {
    "leisure": "pitch",
    "sport": "soccer",
    "id": "way/51445671"
   },
   "geometry": {
    "type": "Point",
    "coordinates": [
     1.35413075,
     52.63317875
    ]
   }
  },
  {
   "type": "Feature",
   "id": "way/51445672",
   "properties": {
    "leisure": "pitch",
    "sport": "soccer",
    "id": "way/51445672"
   },
   "geometry": {
    "type": "Point",
    "coordinates": [
     1.3542580000000002,
     52.63402725
    ]
   }
  },
  {
   "type": "Feature",
   "id": "way/51445678",
   "properties": {
    "leisure": "pitch",
    "sport": "soccer",
    "id": "way/51445678"
   },
   "geometry": {
    "type": "Point",
    "coordinates": [
     1.35248125,
     52.633494
    ]
   }
  },
  {
   "type": "Feature",
   "id": "way/51445689",
   "properties": {
    "leisure": "playground",
    "id": "way/51445689"
   },
   "geometry": {
    "type": "Point",
    "coordinates": [
     1.3523152833333334,
     52.6349128
    ]
   }
  },
  {
   "type": "Feature",
   "id": "way/51445703",
   "properties": {
    "leisure": "pitch",
    "sport": "soccer",
    "id": "way/51445703"
   },
   "geometry": {
    "type": "Point",
    "coordinates": [
     1.35523525,
     52.633371749999995
    ]
   }
  },
  {
   "type": "Feature",
   "id": "way/51445707",
   "properties": {
    "leisure": "pitch",
    "sport": "tennis",
    "id": "way/51445707"
   },
   "geometry": {
    "type": "Point",
    "coordinates": [
     1.3547915000000001,
     52.63504275
    ]
   }
  },
  {
   "type": "Feature",
   "id": "way/51445755",
   "properties": {
    "leisure": "pitch",
    "sport": "tennis",
    "id": "way/51445755"
   },
   "geometry": {
    "type": "Point",
    "coordinates": [
     1.35539175,
     52.63692245
    ]
   }
  },
  {
   "type": "Feature",
   "id": "way/51445766",
   "properties": {
    "leisure": "pitch",
    "sport": "tennis",
    "id": "way/51445766"
   },
   "geometry": {
    "type": "Point",
    "coordinates": [
     1.35489535,
     52.6374804
    ]
   }
  },
  {
   "type": "Feature",
   "id": "way/51763216",
   "properties": {
    "leisure": "pitch",
    "sport": "bowls",
    "id": "way/51763216"
   },
   "geometry": {
    "type": "Point",
    "coordinates": [
     1.3339347,
     52.64375879999999
    ]
   }
  },
  {
   "type": "Feature",
   "id": "way/51763268",
   "properties": {
    "leisure": "pitch",
    "sport": "tennis",
    "id": "way/51763268"
   },
   "geometry": {
    "type": "Point",
    "coordinates": [
     1.3329815999999999,
     52.64391322
    ]
   }
  },
  {
   "type": "Feature",
   "id": "way/51763416",
   "properties": {
    "leisure": "playground",
    "id": "way/51763416"
   },
   "geometry": {
    "type": "Point",
    "coordinates": [
     1.3394283999999999,
     52.648323600000005
    ]
   }
  },
  {
   "type": "Feature",
   "id": "way/52775273",
   "properties": {
    "leisure": "pitch",
    "sport": "cricket",
    "id": "way/52775273"
   },
   "geometry": {
    "type": "Point",
    "coordinates": [
     1.31548675,
     52.65733175
    ]
   }
  },
  {
   "type": "Feature",
   "id": "way/52775274",
   "properties": {
    "leisure": "pitch",
    "sport": "soccer",
    "id": "way/52775274"
   },
   "geometry": {
    "type": "Point",
    "coordinates": [
     1.3156142499999999,
     52.657761
    ]
   }
  },
  {
   "type": "Feature",
   "id": "way/52775275",
   "properties": {
    "leisure": "pitch",
    "name": "5-a-side",
    "sport": "soccer",
    "id": "way/52775275"
   },
   "geometry": {
    "type": "Point",
    "coordinates": [
     1.3149264999999999,
     52.6574535
    ]
   }
  },
  {
   "type": "Feature",
   "id": "way/52775365",
   "properties": {
    "leisure": "pitch",
    "sport": "tennis",
    "surface": "grass",
    "id": "way/52775365"
   },
   "geometry": {
    "type": "Point",
    "coordinates": [
     1.3154621599999998,
     52.65656084
    ]
   }
  },
  {
   "type": "Feature",
   "id": "way/52775366",
   "properties": {
    "leisure": "playground",
    "id": "way/52775366"
   },
   "geometry": {
    "type": "Point",
    "coordinates": [
     1.3158195714285714,
     52.65642179999999
    ]
   }
  },
  {
   "type": "Feature",
   "id": "way/52775368",
   "properties": {
    "leisure": "pitch",
    "sport": "tennis",
    "id": "way/52775368"
   },
   "geometry": {
    "type": "Point",
    "coordinates": [
     1.31505732,
     52.65669296
    ]
   }
  },
  {
   "type": "Feature",
   "id": "way/52775391",
   "properties": {
    "leisure": "pitch",
    "sport": "tennis",
    "surface": "grass",
    "id": "way/52775391"
   },
   "geometry": {
    "type": "Point",
    "coordinates": [
     1.314495,
     52.657912
    ]
   }
  },
  {
   "type": "Feature",
   "id": "way/52775392",
   "properties": {
    "leisure": "pitch",
    "sport": "soccer",
    "id": "way/52775392"
   },
   "geometry": {
    "type": "Point",
    "coordinates": [
     1.31603475,
     52.65852925000001
    ]
   }
  },
  {
   "type": "Feature",
   "id": "way/52775437",
   "properties": {
    "leisure": "pitch",
    "sport": "cricket",
    "id": "way/52775437"
   },
   "geometry": {
    "type": "Point",
    "coordinates": [
     1.321452115625,
     52.663736159375
    ]
   }
  },
  {
   "type": "Feature",
   "id": "way/52775528",
   "properties": {
    "leisure": "pitch",
    "sport": "soccer",
    "surface": "grass",
    "id": "way/52775528"
   },
   "geometry": {
    "type": "Point",
    "coordinates": [
     1.32063535,
     52.66274555
    ]
   }
  },
  {
   "type": "Feature",
   "id": "way/52775547",
   "properties": {
    "leisure": "pitch",
    "sport": "cricket",
    "id": "way/52775547"
   },
   "geometry": {
    "type": "Point",
    "coordinates": [
     1.321269725,
     52.662673749999996
    ]
   }
  },
  {
   "type": "Feature",
   "id": "way/53274691",
   "properties": {
    "leisure": "pitch",
    "sport": "cricket",
    "id": "way/53274691"
   },
   "geometry": {
    "type": "Point",
    "coordinates": [
     1.30185605,
     52.66298215
    ]
   }
  },
  {
   "type": "Feature",
   "id": "way/53274693",
   "properties": {
    "leisure": "pitch",
    "sport": "basketball",
    "id": "way/53274693"
   },
   "geometry": {
    "type": "Point",
    "coordinates": [
     1.301694975,
     52.662369725000005
    ]
   }
  },
  {
   "type": "Feature",
   "id": "way/53274727",
   "properties": {
    "leisure": "pitch",
    "sport": "tennis",
    "id": "way/53274727"
   },
   "geometry": {
    "type": "Point",
    "coordinates": [
     1.3013589749999999,
     52.662440249999996
    ]
   }
  },
  {
   "type": "Feature",
   "id": "way/53274728",
   "properties": {
    "leisure": "pitch",
    "sport": "bowls",
    "id": "way/53274728"
   },
   "geometry": {
    "type": "Point",
    "coordinates": [
     1.3008248,
     52.662563750000004
    ]
   }
  },
  {
   "type": "Feature",
   "id": "way/53274735",
   "properties": {
    "leisure": "pitch",
    "sport": "soccer",
    "id": "way/53274735"
   },
   "geometry": {
    "type": "Point",
    "coordinates": [
     1.3015450499999999,
     52.66360165
    ]
   }
  },
  {
   "type": "Feature",
   "id": "way/53274806",
   "properties": {
    "leisure": "pitch",
    "sport": "soccer",
    "id": "way/53274806"
   },
   "geometry": {
    "type": "Point",
    "coordinates": [
     1.3024583,
     52.66334665000001
    ]
   }
  },
  {
   "type": "Feature",
   "id": "way/53755980",
   "properties": {
    "leisure": "pitch",
    "sport": "tennis",
    "id": "way/53755980"
   },
   "geometry": {
    "type": "Point",
    "coordinates": [
     1.361501725,
     52.63827335
    ]
   }
  },
  {
   "type": "Feature",
   "id": "way/53755981",
   "properties": {
    "leisure": "pitch",
    "sport": "soccer",
    "id": "way/53755981"
   },
   "geometry": {
    "type": "Point",
    "coordinates": [
     1.36067555,
     52.6384016
    ]
   }
  },
  {
   "type": "Feature",
   "id": "way/53755982",
   "properties": {
    "leisure": "pitch",
    "sport": "soccer",
    "id": "way/53755982"
   },
   "geometry": {
    "type": "Point",
    "coordinates": [
     1.3592199000000003,
     52.638239575
    ]
   }
  },
  {
   "type": "Feature",
   "id": "way/53755998",
   "properties": {
    "leisure": "playground",
    "id": "way/53755998"
   },
   "geometry": {
    "type": "Point",
    "coordinates": [
     1.3603164600000002,
     52.63721908
    ]
   }
  },
  {
   "type": "Feature",
   "id": "way/53756000",
   "properties": {
    "leisure": "playground",
    "id": "way/53756000"
   },
   "geometry": {
    "type": "Point",
    "coordinates": [
     1.36052526,
     52.63721368
    ]
   }
  },
  {
   "type": "Feature",
   "id": "way/53756004",
   "properties": {
    "leisure": "pitch",
    "sport": "soccer",
    "id": "way/53756004"
   },
   "geometry": {
    "type": "Point",
    "coordinates": [
     1.3598164000000001,
     52.639422100000004
    ]
   }
  },
  {
   "type": "Feature",
   "id": "way/53756005",
   "properties": {
    "leisure": "pitch",
    "sport": "soccer",
    "id": "way/53756005"
   },
   "geometry": {
    "type": "Point",
    "coordinates": [
     1.3588323999999998,
     52.63935305
    ]
   }
  },
  {
   "type": "Feature",
   "id": "way/53756132",
   "properties": {
    "barrier": "fence",
    "leisure": "pitch",
    "sport": "basketball",
    "id": "way/53756132"
   },
   "geometry": {
    "type": "Point",
    "coordinates": [
     1.36956072,
     52.638389200000006
    ]
   }
  },
  {
   "type": "Feature",
   "id": "way/53794911",
   "properties": {
    "leisure": "park",
    "name": "Saint Clements Park",
    "opening_hours": "08:00+",
    "id": "way/53794911"
   },
   "geometry": {
    "type": "Point",
    "coordinates": [
     1.2966107882352942,
     52.651677194117646
    ]
   }
  },
  {
   "type": "Feature",
   "id": "way/58916907",
   "properties": {
    "dog": "no",
    "leisure": "playground",
    "name": "Dragonfly Children's Play Area",
    "id": "way/58916907"
   },
   "geometry": {
    "type": "Point",
    "coordinates": [
     1.2339717939393937,
     52.607423545454544
    ]
   }
  },
  {
   "type": "Feature",
   "id": "way/60676109",
   "properties": {
    "leisure": "park",
    "name": "Earlham Park",
    "surface": "grass",
    "id": "way/60676109"
   },
   "geometry": {
    "type": "Point",
    "coordinates": [
     1.2361773890624994,
     52.62523583828125
    ]
   }
  },
  {
   "type": "Feature",
   "id": "way/62289026",
   "properties": {
    "building": "swimming_pool",
    "source:building": "OS_OpenData_StreetView",
    "sport": "swimming",
    "id": "way/62289026"
   },
   "geometry": {
    "type": "Point",
    "coordinates": [
     1.2429548,
     52.608060075
    ]
   }
  },
  {
   "type": "Feature",
   "id": "way/62944601",
   "properties": {
    "leisure": "playground",
    "name": "Pedham Green",
    "id": "way/62944601"
   },
   "geometry": {
    "type": "Point",
    "coordinates": [
     1.4520262624999998,
     52.6576773625
    ]
   }
  },
  {
   "type": "Feature",
   "id": "way/66342609",
   "properties": {
    "addr:city": "Norwich",
    "addr:country": "GB",
    "addr:housename": "Number Ten",
    "addr:housenumber": "10",
    "addr:postcode": "NR5 9JB",
    "addr:street": "Barnard Road",
    "building": "sport",
    "email": "norwich@namco.co.uk",
    "fax": "+44 1603 741858",
    "fhrs:id": "6242",
    "leisure": "bowling_alley",
    "name": "Namco Fun Scape",
    "opening_hours": "Mo-Su 10:00+",
    "phone": "+44 1603 740730",
    "source:building": "OS_OpenData_StreetView",
    "sport": "10pin",
    "website": "https://www.namcofunscape.com/",
    "id": "way/66342609"
   },
   "geometry": {
    "type": "Point",
    "coordinates": [
     1.21612855,
     52.64379372500001
    ]
   }
  },
  {
   "type": "Feature",
   "id": "way/72459544",
   "properties": {
    "addr:city": "Norwich",
    "addr:country": "GB",
    "addr:housename": "Eaton Vale Activity Centre",
    "addr:postcode": "NR4 6NN",
    "addr:street": "Church Lane",
    "building": "leisure",
    "fhrs:id": "7567",
    "leisure": "sports_centre",
    "name": "Eaton Vale Activity Centre",
    "phone": "+44 1603 501228",
    "source:building": "OS_OpenData_StreetView",
    "sport": "multi",
    "url": "http://www.eatonvale.co.uk/",
    "id": "way/72459544"
   },
   "geometry": {
    "type": "Point",
    "coordinates": [
     1.25783815,
     52.60108182500001
    ]
   }
  },
  {
   "type": "Feature",
   "id": "way/75516860",
   "properties": {
    "leisure": "playground",
    "name": "Enfield Road Play Area",
    "id": "way/75516860"
   },
   "geometry": {
    "type": "Point",
    "coordinates": [
     1.2405872428571427,
     52.632812185714286
    ]
   }
  },
  {
   "type": "Feature",
   "id": "way/80916491",
   "properties": {
    "leisure": "pitch",
    "sport": "soccer",
    "id": "way/80916491"
   },
   "geometry": {
    "type": "Point",
    "coordinates": [
     1.30912265,
     52.622069525
    ]
   }
  },
  {
   "type": "Feature",
   "id": "way/86495798",
   "properties": {
    "leisure": "swimming_pool",
    "name": "Bernard Matthews Olympic Swimming Pool",
    "sport": "swimming",
    "id": "way/86495798"
   },
   "geometry": {
    "type": "Point",
    "coordinates": [
     1.240842325,
     52.624607950000005
    ]
   }
  },
  {
   "type": "Feature",
   "id": "way/88305513",
   "properties": {
    "addr:city": "Norwich",
    "addr:country": "GB",
    "addr:housenumber": "5a",
    "addr:postcode": "NR5 8PF",
    "addr:street": "Guardian Road",
    "building": "retail",
    "name": "American Golf",
    "shop": "sports",
    "sport": "golf",
    "id": "way/88305513"
   },
   "geometry": {
    "type": "Point",
    "coordinates": [
     1.2587958499999998,
     52.6342584875
    ]
   }
  },
  {
   "type": "Feature",
   "id": "way/88552726",
   "properties": {
    "leisure": "park",
    "name": "The Woodlands Park",
    "surface": "grass",
    "id": "way/88552726"
   },
   "geometry": {
    "type": "Point",
    "coordinates": [
     1.2628705699999998,
     52.635888515
    ]
   }
  },
  {
   "type": "Feature",
   "id": "way/90680965",
   "properties": {
    "leisure": "playground",
    "name": "FunFort",
    "opening_hours": "Su-Th 12:00-21:00; Fr-Sa 12:00-22:00",
    "source": "Bing",
    "id": "way/90680965"
   },
   "geometry": {
    "type": "Point",
    "coordinates": [
     1.219075957142857,
     52.642797957142854
    ]
   }
  },
  {
   "type": "Feature",
   "id": "way/93607800",
   "properties": {
    "addr:city": "Norwich",
    "addr:country": "GB",
    "addr:housename": "Unit 10",
    "addr:housenumber": "10",
    "addr:postcode": "NR5 9JA",
    "addr:street": "Francis Way",
    "building": "unit",
    "email": "enquiries@crossfitrs3.co.uk",
    "leisure": "fitness_centre",
    "name": "CrossFit RS3",
    "opening_hours": "Mo-Fr 06:00-21:30; Sa 08:30-14:00; Su 10:00-12:30",
    "phone": "+44 7935 011660",
    "website": "https://www.crossfitrs3.co.uk/",
    "id": "way/93607800"
   },
   "geometry": {
    "type": "Point",
    "coordinates": [
     1.21189406,
     52.643930479999995
    ]
   }
  },
  {
   "type": "Feature",
   "id": "way/97426219",
   "properties": {
    "leisure": "playground",
    "sport": "skateboard",
    "id": "way/97426219"
   },
   "geometry": {
    "type": "Point",
    "coordinates": [
     1.2442369,
     52.643426125
    ]
   }
  },
  {
   "type": "Feature",
   "id": "way/100168534",
   "properties": {
    "leisure": "garden",
    "id": "way/100168534"
   },
   "geometry": {
    "type": "Point",
    "coordinates": [
     1.2968220514285713,
     52.62786247857143
    ]
   }
  },
  {
   "type": "Feature",
   "id": "way/100655902",
   "properties": {
    "leisure": "park",
    "name": "Gildencroft Park",
    "id": "way/100655902"
   },
   "geometry": {
    "type": "Point",
    "coordinates": [
     1.2914531115384613,
     52.63630393076923
    ]
   }
  },
  {
   "type": "Feature",
   "id": "way/100655906",
   "properties": {
    "leisure": "playground",
    "id": "way/100655906"
   },
   "geometry": {
    "type": "Point",
    "coordinates": [
     1.2916703166666668,
     52.636422474999996
    ]
   }
  },
  {
   "type": "Feature",
   "id": "way/100660114",
   "properties": {
    "leisure": "playground",
    "surface": "sand",
    "id": "way/100660114"
   },
   "geometry": {
    "type": "Point",
    "coordinates": [
     1.2986596,
     52.63602641999999
    ]
   }
  },
  {
   "type": "Feature",
   "id": "way/100715804",
   "properties": {
    "leisure": "pitch",
    "name": "Pitch 6",
    "sport": "soccer",
    "id": "way/100715804"
   },
   "geometry": {
    "type": "Point",
    "coordinates": [
     1.24091365,
     52.62699010000001
    ]
   }
  },
  {
   "type": "Feature",
   "id": "way/100715807",
   "properties": {
    "leisure": "pitch",
    "name": "Pitch 5",
    "sport": "soccer",
    "id": "way/100715807"
   },
   "geometry": {
    "type": "Point",
    "coordinates": [
     1.2409478,
     52.62675495
    ]
   }
  },
  {
   "type": "Feature",
   "id": "way/100715811",
   "properties": {
    "leisure": "pitch",
    "sport": "soccer",
    "id": "way/100715811"
   },
   "geometry": {
    "type": "Point",
    "coordinates": [
     1.24194955,
     52.626863549999996
    ]
   }
  },
  {
   "type": "Feature",
   "id": "way/100715817",
   "properties": {
    "leisure": "pitch",
    "name": "Pitch 7",
    "sport": "soccer",
    "id": "way/100715817"
   },
   "geometry": {
    "type": "Point",
    "coordinates": [
     1.2408845,
     52.627224149999996
    ]
   }
  },
  {
   "type": "Feature",
   "id": "way/100719571",
   "properties": {
    "leisure": "pitch",
    "sport": "tennis",
    "id": "way/100719571"
   },
   "geometry": {
    "type": "Point",
    "coordinates": [
     1.2425373999999998,
     52.627244399999995
    ]
   }
  },
  {
   "type": "Feature",
   "id": "way/100719573",
   "properties": {
    "leisure": "pitch",
    "sport": "soccer",
    "id": "way/100719573"
   },
   "geometry": {
    "type": "Point",
    "coordinates": [
     1.24148695,
     52.627192275000006
    ]
   }
  },
  {
   "type": "Feature",
   "id": "way/100719576",
   "properties": {
    "leisure": "pitch",
    "sport": "soccer",
    "id": "way/100719576"
   },
   "geometry": {
    "type": "Point",
    "coordinates": [
     1.24190245,
     52.62721145
    ]
   }
  },
  {
   "type": "Feature",
   "id": "way/100719579",
   "properties": {
    "leisure": "pitch",
    "sport": "soccer",
    "id": "way/100719579"
   },
   "geometry": {
    "type": "Point",
    "coordinates": [
     1.2415340499999998,
     52.626844375
    ]
   }
  },
  {
   "type": "Feature",
   "id": "way/102482103",
   "properties": {
    "leaf_cycle": "deciduous",
    "leisure": "park",
    "name": "Sycamore Crescent Wood",
    "natural": "wood",
    "id": "way/102482103"
   },
   "geometry": {
    "type": "Point",
    "coordinates": [
     1.2634025634615387,
     52.63826820769231
    ]
   }
  },
  {
   "type": "Feature",
   "id": "way/102808239",
   "properties": {
    "addr:city": "Norwich",
    "addr:country": "GB",
    "addr:housename": "The Dojo",
    "addr:housenumber": "3",
    "addr:postcode": "NR6 6AX",
    "addr:street": "Burton Road",
    "building": "unit",
    "description": "Fitness and wellbeing center for all ages with cafe.",
    "name": "The Dojo",
    "phone": "+44 1603 418751",
    "source:position": "OS_OpenData_StreetView",
    "sport": "gymnastics",
    "website": "https://thedojonorwich.co.uk/",
    "id": "way/102808239"
   },
   "geometry": {
    "type": "Point",
    "coordinates": [
     1.28693065,
     52.66198925
    ]
   }
  },
  {
   "type": "Feature",
   "id": "way/103089197",
   "properties": {
    "building": "church",
    "denomination": "anglican",
    "disused:amenity": "place_of_worship",
    "email": "info@nama4kicks.co.uk",
    "leisure": "sports_centre",
    "listed_status": "Grade I",
    "material": "stone",
    "name": "St Peter Parmentergate Martial Arts Centre",
    "old_name": "Saint Peter Parmentergate",
    "religion": "christian",
    "short_name": "Saint Peter",
    "sport": "martial_arts",
    "tower": "square",
    "website": "http://www.nama4kicks.co.uk/",
    "website:operator": "http://www.norwich-churches.org/St%20Peter%20Parmentergate/home.html",
    "wikidata": "Q20713593",
    "id": "way/103089197"
   },
   "geometry": {
    "type": "Point",
    "coordinates": [
     1.2993398217391303,
     52.62712526956521
    ]
   }
  },
  {
   "type": "Feature",
   "id": "way/103220292",
   "properties": {
    "addr:city": "Norwich",
    "addr:country": "GB",
    "addr:postcode": "NR3 3BP",
    "addr:street": "Oak Street",
    "amenity": "nightclub",
    "building": "yes",
    "description": "A cabaret venue with live music, dance and comedy every week.",
    "email": "admin@thetalknorwich.com",
    "fax": "+44 1603 660772",
    "fhrs:id": "1112966",
    "name": "The Talk",
    "phone": "+44 1603 660220",
    "website": "http://www.thetalknorwich.com/",
    "id": "way/103220292"
   },
   "geometry": {
    "type": "Point",
    "coordinates": [
     1.2896212400000002,
     52.63651546
    ]
   }
  },
  {
   "type": "Feature",
   "id": "way/103429417",
   "properties": {
    "access": "permissive",
    "leisure": "swimming_pool",
    "name": "Paddling Pool",
    "water": "pool",
    "id": "way/103429417"
   },
   "geometry": {
    "type": "Point",
    "coordinates": [
     1.28715129375,
     52.63989794374999
    ]
   }
  },
  {
   "type": "Feature",
   "id": "way/103522681",
   "properties": {
    "building": "unit",
    "email": "norwich@twenty4sevenfitness.co.uk",
    "leisure": "fitness_centre",
    "name": "24/7 Fitness",
    "opening_hours": "24/7",
    "phone": "+44 1603 622473",
    "source": "Bing",
    "sport": "fitness",
    "website": "https://247fitness.co/gyms/norwich",
    "id": "way/103522681"
   },
   "geometry": {
    "type": "Point",
    "coordinates": [
     1.30485696,
     52.626514179999994
    ]
   }
  },
  {
   "type": "Feature",
   "id": "way/103522683",
   "properties": {
    "addr:city": "Norwich",
    "addr:country": "GB",
    "addr:housename": "The Riverside Centre",
    "addr:postcode": "NR1 1WZ",
    "addr:street": "Wherry Road",
    "building": "yes",
    "email": "enquiries.norwich@gravity-uk.com",
    "fhrs:id": "915688",
    "leisure": "sports_centre",
    "name": "Gravity",
    "not:addr:postcode": "NR1 1WX",
    "old_name": "Wonderland;Project;Lava Ignite;Time",
    "opening_hours": "Mo-Th 10:00-22:00; Fr 10:00-23:00; Sa-Su 09:00-23:00",
    "phone": "+44 1603 964949",
    "source": "Bing",
    "sport": "trampoline",
    "website": "https://www.gravity-uk.com/ParkInfoNorwich.aspx?Park=4",
    "id": "way/103522683"
   },
   "geometry": {
    "type": "Point",
    "coordinates": [
     1.3045485588235295,
     52.62567037058823
    ]
   }
  },
  {
   "type": "Feature",
   "id": "way/103556434",
   "properties": {
    "leisure": "garden",
    "name": "Fairhaven Woodland and Water Garden",
    "tourism": "attraction",
    "wheelchair": "yes",
    "wikidata": "Q5430474",
    "id": "way/103556434"
   },
   "geometry": {
    "type": "Point",
    "coordinates": [
     1.49806943880597,
     52.66943016268658
    ]
   }
  },
  {
   "type": "Feature",
   "id": "way/103969434",
   "properties": {
    "amenity": "bird_hide",
    "building": "shelter",
    "leisure": "bird_hide",
    "shelter_type": "wildlife_hide",
    "id": "way/103969434"
   },
   "geometry": {
    "type": "Point",
    "coordinates": [
     1.4680233,
     52.688508725
    ]
   }
  },
  {
   "type": "Feature",
   "id": "way/104330379",
   "properties": {
    "landuse": "meadow",
    "leisure": "nature_reserve",
    "name": "Sweet Briar Marsh",
    "note": "Site of Special Scientific Interest",
    "source": "Local knowledge",
    "id": "way/104330379"
   },
   "geometry": {
    "type": "Point",
    "coordinates": [
     1.2629000178571428,
     52.640416789285716
    ]
   }
  },
  {
   "type": "Feature",
   "id": "way/104382579",
   "properties": {
    "leisure": "playground",
    "id": "way/104382579"
   },
   "geometry": {
    "type": "Point",
    "coordinates": [
     1.29446728,
     52.620687999999994
    ]
   }
  },
  {
   "type": "Feature",
   "id": "way/104520522",
   "properties": {
    "leisure": "nature_reserve",
    "name": "Wensum Local Nature Reserve",
    "wikidata": "Q7982970",
    "id": "way/104520522"
   },
   "geometry": {
    "type": "Point",
    "coordinates": [
     1.264267612280702,
     52.63941972894736
    ]
   }
  },
  {
   "type": "Feature",
   "id": "way/105757211",
   "properties": {
    "building": "bandstand",
    "leisure": "bandstand",
    "source": "Bing",
    "id": "way/105757211"
   },
   "geometry": {
    "type": "Point",
    "coordinates": [
     1.2570876411764704,
     52.62051694705882
    ]
   }
  },
  {
   "type": "Feature",
   "id": "way/106345201",
   "properties": {
    "leisure": "garden",
    "id": "way/106345201"
   },
   "geometry": {
    "type": "Point",
    "coordinates": [
     1.23740808,
     52.6253348
    ]
   }
  },
  {
   "type": "Feature",
   "id": "way/106376367",
   "properties": {
    "leisure": "garden",
    "id": "way/106376367"
   },
   "geometry": {
    "type": "Point",
    "coordinates": [
     1.2386788866666667,
     52.62531591333333
    ]
   }
  },
  {
   "type": "Feature",
   "id": "way/107045865",
   "properties": {
    "addr:city": "Norwich",
    "addr:housenumber": "122-125",
    "addr:place": "Castle Mall",
    "addr:postcode": "NR1 3DD",
    "amenity": "cinema",
    "building": "amenity",
    "fhrs:id": "15366",
    "layer": "1",
    "level": "5",
    "name": "Vue Cinema",
    "note": "8-screen cinema",
    "phone": "+44 8712 240240",
    "source:addr": "FHRS Open Data",
    "website": "https://www.myvue.com/Norwich/",
    "wheelchair": "yes",
    "wikidata": "Q39413486",
    "id": "way/107045865"
   },
   "geometry": {
    "type": "Point",
    "coordinates": [
     1.2959944742857143,
     52.62669523714287
    ]
   }
  },
  {
   "type": "Feature",
   "id": "way/107045871",
   "properties": {
    "addr:city": "Norwich",
    "addr:country": "GB",
    "addr:full": "6 Castle Mall, NORWICH, NR1 3DD",
    "addr:housename": "LU39",
    "addr:housenumber": "6",
    "addr:postcode": "NR1 3DD",
    "building": "unit",
    "covered": "yes",
    "fee": "no",
    "layer": "-4",
    "level": "1",
    "name": "Ping Pong Parlour",
    "sport": "table_tennis",
    "id": "way/107045871"
   },
   "geometry": {
    "type": "Point",
    "coordinates": [
     1.29536217,
     52.62790408000001
    ]
   }
  },
  {
   "type": "Feature",
   "id": "way/107046108",
   "properties": {
    "addr:city": "Norwich",
    "addr:country": "GB",
    "addr:housenumber": "70a",
    "addr:postcode": "NR1 3DD",
    "building": "unit",
    "covered": "yes",
    "layer": "-3",
    "leisure": "playground",
    "level": "2",
    "name": "Bedlam Soft Play Area",
    "phone": "+44 1603 6522561",
    "id": "way/107046108"
   },
   "geometry": {
    "type": "Point",
    "coordinates": [
     1.2975205714285718,
     52.627578500000006
    ]
   }
  },
  {
   "type": "Feature",
   "id": "way/108415771",
   "properties": {
    "leisure": "pitch",
    "sport": "tennis",
    "id": "way/108415771"
   },
   "geometry": {
    "type": "Point",
    "coordinates": [
     1.30337025,
     52.63185105
    ]
   }
  },
  {
   "type": "Feature",
   "id": "way/108415772",
   "properties": {
    "leisure": "pitch",
    "sport": "rugby",
    "id": "way/108415772"
   },
   "geometry": {
    "type": "Point",
    "coordinates": [
     1.30574475,
     52.631554175000005
    ]
   }
  },
  {
   "type": "Feature",
   "id": "way/108415774",
   "properties": {
    "leisure": "pitch",
    "sport": "rugby",
    "id": "way/108415774"
   },
   "geometry": {
    "type": "Point",
    "coordinates": [
     1.305719775,
     52.630907475
    ]
   }
  },
  {
   "type": "Feature",
   "id": "way/108415783",
   "properties": {
    "leisure": "pitch",
    "sport": "rugby",
    "id": "way/108415783"
   },
   "geometry": {
    "type": "Point",
    "coordinates": [
     1.3070087,
     52.631348349999996
    ]
   }
  },
  {
   "type": "Feature",
   "id": "way/108609310",
   "properties": {
    "leisure": "park",
    "name": "West End Street Gardens",
    "natural": "wood",
    "id": "way/108609310"
   },
   "geometry": {
    "type": "Point",
    "coordinates": [
     1.2762272421052627,
     52.635668421052635
    ]
   }
  },
  {
   "type": "Feature",
   "id": "way/112186397",
   "properties": {
    "leisure": "garden",
    "id": "way/112186397"
   },
   "geometry": {
    "type": "Point",
    "coordinates": [
     1.2949703600000002,
     52.6335104
    ]
   }
  },
  {
   "type": "Feature",
   "id": "way/112467639",
   "properties": {
    "addr:city": "Norwich",
    "addr:country": "GB",
    "addr:housename": "Unit 1-3",
    "addr:housenumber": "2",
    "addr:postcode": "NR3 3AF",
    "addr:street": "Saint Mary's Works",
    "building": "yes",
    "email": "info@phoenixgymnorwich.co.uk",
    "leisure": "fitness_centre",
    "name": "Phoenix Gym",
    "opening_hours": "Mo-Fr 06:00-22:00; Sa 09:00-18:00; Su 09:00-15:00",
    "phone": "+44 1603 613436",
    "source": "Bing",
    "website": "https://phoenixgymnorwich.co.uk/",
    "id": "way/112467639"
   },
   "geometry": {
    "type": "Point",
    "coordinates": [
     1.2902726999999998,
     52.634226871428574
    ]
   }
  },
  {
   "type": "Feature",
   "id": "way/112470947",
   "properties": {
    "barrier": "fence",
    "leisure": "playground",
    "id": "way/112470947"
   },
   "geometry": {
    "type": "Point",
    "coordinates": [
     1.4193924000000002,
     52.610221833333334
    ]
   }
  },
  {
   "type": "Feature",
   "id": "way/112840147",
   "properties": {
    "building": "yes",
    "leisure": "sports_centre",
    "name": "Clarke's Snooker Club",
    "source": "Bing",
    "sport": "billiards",
    "id": "way/112840147"
   },
   "geometry": {
    "type": "Point",
    "coordinates": [
     1.2830075214285712,
     52.64029174285714
    ]
   }
  },
  {
   "type": "Feature",
   "id": "way/114164991",
   "properties": {
    "leisure": "pitch",
    "source": "Bing",
    "sport": "soccer",
    "id": "way/114164991"
   },
   "geometry": {
    "type": "Point",
    "coordinates": [
     1.2661303,
     52.647172225000006
    ]
   }
  },
  {
   "type": "Feature",
   "id": "way/114164992",
   "properties": {
    "leisure": "pitch",
    "source": "Bing",
    "sport": "soccer",
    "id": "way/114164992"
   },
   "geometry": {
    "type": "Point",
    "coordinates": [
     1.2661451000000001,
     52.644184349999996
    ]
   }
  },
  {
   "type": "Feature",
   "id": "way/114164993",
   "properties": {
    "area": "yes",
    "leisure": "track",
    "name": "Cycle Speedway",
    "sport": "cycling",
    "id": "way/114164993"
   },
   "geometry": {
    "type": "Point",
    "coordinates": [
     1.2665190753846154,
     52.64321876769232
    ]
   }
  },
  {
   "type": "Feature",
   "id": "way/114164995",
   "properties": {
    "leisure": "pitch",
    "source": "Bing",
    "sport": "soccer",
    "id": "way/114164995"
   },
   "geometry": {
    "type": "Point",
    "coordinates": [
     1.266086,
     52.64783585
    ]
   }
  },
  {
   "type": "Feature",
   "id": "way/114164996",
   "properties": {
    "leisure": "playground",
    "source": "Bing",
    "id": "way/114164996"
   },
   "geometry": {
    "type": "Point",
    "coordinates": [
     1.2666117000000001,
     52.6460201
    ]
   }
  },
  {
   "type": "Feature",
   "id": "way/114164998",
   "properties": {
    "leisure": "pitch",
    "source": "Bing",
    "sport": "soccer",
    "id": "way/114164998"
   },
   "geometry": {
    "type": "Point",
    "coordinates": [
     1.2662859499999999,
     52.644841875
    ]
   }
  },
  {
   "type": "Feature",
   "id": "way/114164999",
   "properties": {
    "leisure": "pitch",
    "source": "Bing",
    "id": "way/114164999"
   },
   "geometry": {
    "type": "Point",
    "coordinates": [
     1.26613175,
     52.646008050000006
    ]
   }
  },
  {
   "type": "Feature",
   "id": "way/114165000",
   "properties": {
    "leisure": "pitch",
    "source": "Bing",
    "sport": "soccer",
    "id": "way/114165000"
   },
   "geometry": {
    "type": "Point",
    "coordinates": [
     1.2661733000000002,
     52.6465092
    ]
   }
  },
  {
   "type": "Feature",
   "id": "way/114165001",
   "properties": {
    "leisure": "pitch",
    "source": "Bing",
    "sport": "soccer",
    "id": "way/114165001"
   },
   "geometry": {
    "type": "Point",
    "coordinates": [
     1.26623705,
     52.645508449999994
    ]
   }
  },
  {
   "type": "Feature",
   "id": "way/114165002",
   "properties": {
    "leisure": "pitch",
    "source": "Bing",
    "sport": "soccer",
    "id": "way/114165002"
   },
   "geometry": {
    "type": "Point",
    "coordinates": [
     1.2669836,
     52.644207025
    ]
   }
  },
  {
   "type": "Feature",
   "id": "way/114167613",
   "properties": {
    "leisure": "pitch",
    "source": "Bing",
    "sport": "soccer",
    "id": "way/114167613"
   },
   "geometry": {
    "type": "Point",
    "coordinates": [
     1.269891025,
     52.6441084
    ]
   }
  },
  {
   "type": "Feature",
   "id": "way/114167617",
   "properties": {
    "leisure": "pitch",
    "source": "Bing",
    "sport": "soccer",
    "id": "way/114167617"
   },
   "geometry": {
    "type": "Point",
    "coordinates": [
     1.2703709,
     52.644419625000005
    ]
   }
  },
  {
   "type": "Feature",
   "id": "way/114167618",
   "properties": {
    "leisure": "pitch",
    "source": "Bing",
    "sport": "soccer",
    "id": "way/114167618"
   },
   "geometry": {
    "type": "Point",
    "coordinates": [
     1.2697492750000001,
     52.644545199999996
    ]
   }
  },
  {
   "type": "Feature",
   "id": "way/114305293",
   "properties": {
    "addr:city": "Norwich",
    "addr:country": "GB",
    "addr:housename": "Framingham Earl Community Sports Centre",
    "addr:postcode": "NR14 7QP",
    "addr:street": "Norwich Road",
    "building": "yes",
    "leisure": "sports_centre",
    "name": "Framingham Earl Community Sports Centre",
    "id": "way/114305293"
   },
   "geometry": {
    "type": "Point",
    "coordinates": [
     1.3377992916666666,
     52.58023708333332
    ]
   }
  },
  {
   "type": "Feature",
   "id": "way/114395561",
   "properties": {
    "addr:city": "Norwich",
    "addr:country": "GB",
    "addr:postcode": "NR4 6SF",
    "addr:street": "Newmarket Road",
    "building": "club_house",
    "club": "sport",
    "fhrs:id": "71562",
    "name": "Eaton Golf Club",
    "sport": "golf",
    "id": "way/114395561"
   },
   "geometry": {
    "type": "Point",
    "coordinates": [
     1.2689878454545456,
     52.609973909090904
    ]
   }
  },
  {
   "type": "Feature",
   "id": "way/114651049",
   "properties": {
    "addr:city": "Norwich",
    "addr:country": "GB",
    "addr:postcode": "NR5 9ED",
    "addr:street": "Clover Hill Road",
    "building": "yes",
    "description": "The FAs Football Development Centre in Bowthorpe",
    "fhrs:id": "9267",
    "leisure": "sports_centre",
    "name": "The FDC",
    "operator": "Norfolk FA",
    "phone": "+44 1603 748944",
    "sport": "soccer",
    "website": "http://www.norfolkfa.com/the%20fdc/county-5s",
    "id": "way/114651049"
   },
   "geometry": {
    "type": "Point",
    "coordinates": [
     1.22199942,
     52.6420207
    ]
   }
  },
  {
   "type": "Feature",
   "id": "way/114692876",
   "properties": {
    "leisure": "pitch",
    "sport": "bowls",
    "id": "way/114692876"
   },
   "geometry": {
    "type": "Point",
    "coordinates": [
     1.25881905,
     52.6135034
    ]
   }
  },
  {
   "type": "Feature",
   "id": "way/114692920",
   "properties": {
    "leisure": "pitch",
    "sport": "bowls",
    "id": "way/114692920"
   },
   "geometry": {
    "type": "Point",
    "coordinates": [
     1.259370325,
     52.6136669
    ]
   }
  },
  {
   "type": "Feature",
   "id": "way/114791452",
   "properties": {
    "access": "private",
    "leisure": "indoor_pool",
    "sport": "swimming",
    "id": "way/114791452"
   },
   "geometry": {
    "type": "Point",
    "coordinates": [
     1.2735521,
     52.61743475
    ]
   }
  },
  {
   "type": "Feature",
   "id": "way/114957174",
   "properties": {
    "leisure": "pitch",
    "source": "Bing",
    "id": "way/114957174"
   },
   "geometry": {
    "type": "Point",
    "coordinates": [
     1.222704175,
     52.64190792499999
    ]
   }
  },
  {
   "type": "Feature",
   "id": "way/114957184",
   "properties": {
    "barrier": "wall",
    "leisure": "pitch",
    "source": "Bing",
    "id": "way/114957184"
   },
   "geometry": {
    "type": "Point",
    "coordinates": [
     1.2220118214285713,
     52.642609128571415
    ]
   }
  },
  {
   "type": "Feature",
   "id": "way/116693580",
   "properties": {
    "addr:city": "Norwich",
    "addr:country": "GB",
    "addr:postcode": "NR1 1WX",
    "addr:street": "Wherry Road",
    "building": "yes",
    "fax": "+44 1603 671395",
    "leisure": "swimming_pool",
    "name": "Riverside Leisure Centre",
    "opening_hours": "Mo-Fr 07:00-22:00; Sa 08:00-18:00; Su 08:30-20:00",
    "operator": "DC Leisure",
    "phone": "+44 1603 625166",
    "sport": "swimming",
    "start_year": "2003",
    "website": "http://www.dcleisurecentres.co.uk/centres/riverside-leisure-centre/",
    "id": "way/116693580"
   },
   "geometry": {
    "type": "Point",
    "coordinates": [
     1.3066106857142858,
     52.621802071428576
    ]
   }
  },
  {
   "type": "Feature",
   "id": "way/117007257",
   "properties": {
    "addr:city": "Norwich",
    "addr:country": "GB",
    "addr:housenumber": "2",
    "addr:postcode": "NR2 4UX",
    "addr:street": "Marriott Close",
    "building": "unit",
    "email": "simon@completefitnessltd.co.uk",
    "leisure": "fitness_centre",
    "name": "Complete Fitness",
    "opening_hours": "Mo-Fr 06:30-22:00; Sa 08:00-20:00; Su 10:00-15:00",
    "phone": "+44 7799 884752",
    "source": "Bing",
    "website": "https://www.completefitnessltd.co.uk/",
    "id": "way/117007257"
   },
   "geometry": {
    "type": "Point",
    "coordinates": [
     1.2835481499999999,
     52.636650575000004
    ]
   }
  },
  {
   "type": "Feature",
   "id": "way/117381862",
   "properties": {
    "addr:city": "Norwich",
    "addr:country": "GB",
    "addr:housenumber": "125",
    "addr:postcode": "NR3 2RT",
    "addr:street": "Copenhagen Way",
    "building": "retail",
    "leisure": "fitness_centre",
    "name": "Pure Gym",
    "note": "Opening 2nd April 2019",
    "opening_hours": "24/7 closed",
    "operator": "Pure Gym Ltd",
    "source": "local_knowledge;Bing",
    "website": "https://www.puregym.com/gyms/norwich-aylsham-road/timetable/",
    "id": "way/117381862"
   },
   "geometry": {
    "type": "Point",
    "coordinates": [
     1.2838600500000001,
     52.64771686666666
    ]
   }
  },
  {
   "type": "Feature",
   "id": "way/117915345",
   "properties": {
    "addr:city": "Norwich",
    "addr:country": "GB",
    "addr:postcode": "NR3 1TS",
    "addr:street": "Barrack Street",
    "building": "leisure",
    "email": "norwich@greens-fitness.com",
    "fax": "+44 1603 760080",
    "leisure": "fitness_centre",
    "name": "Nuffield Health",
    "opening_hours": "Mo-Fr 06:30-22:00; Sa-Su,PH 08:00-21:00",
    "phone": "+44 1603 857323",
    "sport": "fitness",
    "website": "https://www.nuffieldhealth.com/gyms/norwich",
    "id": "way/117915345"
   },
   "geometry": {
    "type": "Point",
    "coordinates": [
     1.3070167095238099,
     52.63488953809525
    ]
   }
  },
  {
   "type": "Feature",
   "id": "way/118298271",
   "properties": {
    "building": "yes",
    "leisure": "sports_centre",
    "name": "Planet Ice",
    "opening_hours": "Mo-Su off",
    "opening_hours:url": "http://www.planet-ice.co.uk/norwich_pr",
    "sport": "ice_skating",
    "id": "way/118298271"
   },
   "geometry": {
    "type": "Point",
    "coordinates": [
     1.2621607138888893,
     52.654534305555586
    ]
   }
  },
  {
   "type": "Feature",
   "id": "way/118649716",
   "properties": {
    "leisure": "playground",
    "source": "Bing",
    "id": "way/118649716"
   },
   "geometry": {
    "type": "Point",
    "coordinates": [
     1.25479115,
     52.635255325
    ]
   }
  },
  {
   "type": "Feature",
   "id": "way/118649726",
   "properties": {
    "leisure": "pitch",
    "source": "Bing",
    "sport": "basketball",
    "id": "way/118649726"
   },
   "geometry": {
    "type": "Point",
    "coordinates": [
     1.255190175,
     52.635713925000005
    ]
   }
  },
  {
   "type": "Feature",
   "id": "way/118649728",
   "properties": {
    "leisure": "pitch",
    "source": "Bing",
    "sport": "soccer",
    "surface": "grass",
    "id": "way/118649728"
   },
   "geometry": {
    "type": "Point",
    "coordinates": [
     1.2550569999999999,
     52.634537949999995
    ]
   }
  },
  {
   "type": "Feature",
   "id": "way/118649730",
   "properties": {
    "leisure": "pitch",
    "source": "Bing",
    "sport": "skateboard",
    "surface": "paved",
    "id": "way/118649730"
   },
   "geometry": {
    "type": "Point",
    "coordinates": [
     1.25613858,
     52.635418019999996
    ]
   }
  },
  {
   "type": "Feature",
   "id": "way/118649739",
   "properties": {
    "leisure": "pitch",
    "source": "Bing",
    "sport": "soccer",
    "surface": "grass",
    "id": "way/118649739"
   },
   "geometry": {
    "type": "Point",
    "coordinates": [
     1.25747405,
     52.6358321
    ]
   }
  },
  {
   "type": "Feature",
   "id": "way/118649808",
   "properties": {
    "leisure": "pitch",
    "source": "Bing",
    "sport": "soccer",
    "surface": "grass",
    "id": "way/118649808"
   },
   "geometry": {
    "type": "Point",
    "coordinates": [
     1.25404055,
     52.634557625
    ]
   }
  },
  {
   "type": "Feature",
   "id": "way/119331016",
   "properties": {
    "addr:city": "Norwich",
    "addr:country": "GB",
    "addr:housenumber": "17,19",
    "addr:postcode": "NR1 3SP",
    "addr:street": "Saint Stephens Road",
    "building": "hall",
    "email": "norwich@laserfun.co.uk",
    "fhrs:id": "69975",
    "leisure": "sports_centre",
    "name": "Quasar",
    "opening_hours": "Mo-Fr 12:00-22:00; Sa 09:00-22:00; Su 10:00-20:00",
    "phone": "+44 1603 763403",
    "sport": "laser_tag",
    "website": "http://www.laserfun.co.uk/",
    "id": "way/119331016"
   },
   "geometry": {
    "type": "Point",
    "coordinates": [
     1.2894562888888887,
     52.623757822222224
    ]
   }
  },
  {
   "type": "Feature",
   "id": "way/119476419",
   "properties": {
    "addr:city": "Norwich",
    "addr:country": "GB",
    "addr:housename": "c/o Parkside School",
    "addr:postcode": "NR2 3JA",
    "addr:street": "College Road",
    "building": "yes",
    "email": "dgothard8nrd@nsix.org.uk",
    "leisure": "sports_centre",
    "name": "Recreation Road Sports Centre",
    "opening_hours": "Mo-Fr 17:00-21:00; Sa-Su 09:00-17:00",
    "operator": "Norfolk County Council",
    "phone": "+44 1603 458382",
    "phone:urgent": "+44 7792 492352",
    "source": "Bing",
    "website": "http://www.recreationroadsportscentre.org.uk/",
    "id": "way/119476419"
   },
   "geometry": {
    "type": "Point",
    "coordinates": [
     1.2682083666666668,
     52.62822505
    ]
   }
  },
  {
   "type": "Feature",
   "id": "way/119557436",
   "properties": {
    "addr:city": "Norwich",
    "addr:country": "GB",
    "addr:housenumber": "63",
    "addr:postcode": "NR1 4NS",
    "addr:street": "Borrowdale Drive",
    "building": "retail",
    "email": "sales@clickersarchery.co.uk",
    "name": "Clickers Archery Ltd",
    "opening_hours": "Tu-Sa 10:00-17:00; Su-Mo off",
    "phone": "+44 1603 300490",
    "shop": "sports",
    "sport": "archery",
    "website": "https://www.clickersarchery.co.uk/",
    "id": "way/119557436"
   },
   "geometry": {
    "type": "Point",
    "coordinates": [
     1.3229151749999999,
     52.63963845
    ]
   }
  },
  {
   "type": "Feature",
   "id": "way/119910990",
   "properties": {
    "addr:city": "Norwich",
    "addr:country": "GB",
    "addr:postcode": "NR7 0HT",
    "addr:street": "Northside Road",
    "building": "yes",
    "fax": "+44 1603 438680",
    "leisure": "sports_centre",
    "name": "Bannatyne's Health Club",
    "opening_hours": "Mo-Fr 06:30-22:30; Sa-Su 08:00-21:00",
    "phone": "+44 1603 431580",
    "sport": "fitness",
    "website": "https://www.bannatyne.co.uk/fitness/norwich.htm",
    "id": "way/119910990"
   },
   "geometry": {
    "type": "Point",
    "coordinates": [
     1.3684573714285713,
     52.62970211428573
    ]
   }
  },
  {
   "type": "Feature",
   "id": "way/120274759",
   "properties": {
    "leisure": "pitch",
    "id": "way/120274759"
   },
   "geometry": {
    "type": "Point",
    "coordinates": [
     1.36879175,
     52.630291075
    ]
   }
  },
  {
   "type": "Feature",
   "id": "way/120393538",
   "properties": {
    "leisure": "playground",
    "id": "way/120393538"
   },
   "geometry": {
    "type": "Point",
    "coordinates": [
     1.3659975,
     52.626707485714284
    ]
   }
  },
  {
   "type": "Feature",
   "id": "way/120680604",
   "properties": {
    "addr:city": "Norwich",
    "addr:country": "GB",
    "addr:housenumber": "63-67",
    "addr:interpolation": "odd",
    "addr:postcode": "NR1 1DG",
    "addr:street": "Prince of Wales Road",
    "alt_name": "Pop World",
    "amenity": "nightclub",
    "brand": "Stonegate Pub Company",
    "building": "yes",
    "email": "Popworld.Norwich@stonegatepubs.com",
    "fhrs:id": "1071908",
    "name": "popWorld",
    "old_name": "Essence;Fatso's Speak-Easy",
    "opening_hours": "Su,Th 21:00-03:00; Fr 21:00-04:00; Sa 16:00-04:00; Mo-We \"private hire\"",
    "phone": "+44 1603 516117",
    "start_date": "2018-08-24 22:00",
    "website": "https://www.popworldparty.co.uk/norwich",
    "id": "way/120680604"
   },
   "geometry": {
    "type": "Point",
    "coordinates": [
     1.30239841,
     52.628910610000005
    ]
   }
  },
  {
   "type": "Feature",
   "id": "way/121499374",
   "properties": {
    "addr:city": "Norwich",
    "addr:country": "GB",
    "addr:housename": "Gospel Hall",
    "addr:housenumber": "5",
    "addr:postcode": "NR2 4HH",
    "addr:street": "St Benedicts View",
    "building": "house",
    "fee": "yes",
    "leisure": "rage_room",
    "name": "The Rage Rooms",
    "phone": "+44 1603 626873",
    "start_date": "2019-04",
    "strapline": "Anger is a gift",
    "website": "http://www.ragerooms-norwich.co.uk/",
    "id": "way/121499374"
   },
   "geometry": {
    "type": "Point",
    "coordinates": [
     1.284758025,
     52.631876675
    ]
   }
  },
  {
   "type": "Feature",
   "id": "way/121499485",
   "properties": {
    "addr:city": "Norwich",
    "addr:country": "GB",
    "addr:housenumber": "5-7",
    "addr:interpolation": "odd",
    "addr:postcode": "NR2 4HX",
    "addr:street": "Dereham Road",
    "building": "commercial",
    "email": "bookings@bowlinghouse.co.uk",
    "fhrs:id": "1063147",
    "name": "Bowling/House",
    "opening_hours": "Mo-Th 16:00-23:00; Fr 16:00-00:00; Sa 12:00-00:00; Su 12:00-23:00",
    "phone": "+44 1603 397412",
    "real_ale": "yes",
    "short_name": "B.H.",
    "source": "Bing",
    "sport": "10pin",
    "start_date": "2018-03-27",
    "website": "https://www.bowlinghouse.co.uk/",
    "id": "way/121499485"
   },
   "geometry": {
    "type": "Point",
    "coordinates": [
     1.285005075,
     52.6323199
    ]
   }
  },
  {
   "type": "Feature",
   "id": "way/122105954",
   "properties": {
    "leisure": "playground",
    "id": "way/122105954"
   },
   "geometry": {
    "type": "Point",
    "coordinates": [
     1.2106776428571429,
     52.64102618571429
    ]
   }
  },
  {
   "type": "Feature",
   "id": "way/122923540",
   "properties": {
    "leisure": "playground",
    "id": "way/122923540"
   },
   "geometry": {
    "type": "Point",
    "coordinates": [
     1.2211532538461538,
     52.63785923076922
    ]
   }
  },
  {
   "type": "Feature",
   "id": "way/122923637",
   "properties": {
    "leisure": "playground",
    "id": "way/122923637"
   },
   "geometry": {
    "type": "Point",
    "coordinates": [
     1.2220880833333334,
     52.63710126666666
    ]
   }
  },
  {
   "type": "Feature",
   "id": "way/123451354",
   "properties": {
    "leisure": "playground",
    "id": "way/123451354"
   },
   "geometry": {
    "type": "Point",
    "coordinates": [
     1.2292407764705882,
     52.64156634705882
    ]
   }
  },
  {
   "type": "Feature",
   "id": "way/123906228",
   "properties": {
    "leisure": "playground",
    "id": "way/123906228"
   },
   "geometry": {
    "type": "Point",
    "coordinates": [
     1.2305062071428572,
     52.63851892857143
    ]
   }
  },
  {
   "type": "Feature",
   "id": "way/123906229",
   "properties": {
    "leisure": "playground",
    "id": "way/123906229"
   },
   "geometry": {
    "type": "Point",
    "coordinates": [
     1.2317050789473687,
     52.63883012631579
    ]
   }
  },
  {
   "type": "Feature",
   "id": "way/123906230",
   "properties": {
    "leisure": "playground",
    "id": "way/123906230"
   },
   "geometry": {
    "type": "Point",
    "coordinates": [
     1.2246112862068963,
     52.638632627586205
    ]
   }
  },
  {
   "type": "Feature",
   "id": "way/125143683",
   "properties": {
    "email": "contact@grapeshillcommunitygarden.org",
    "leisure": "garden",
    "name": "Grapes Hill Community Garden",
    "website": "http://www.grapeshillcommunitygarden.org/",
    "id": "way/125143683"
   },
   "geometry": {
    "type": "Point",
    "coordinates": [
     1.284513446153846,
     52.631693092307685
    ]
   }
  },
  {
   "type": "Feature",
   "id": "way/125553044",
   "properties": {
    "building": "yes",
    "leisure": "sports_centre",
    "name": "Haydn Morris Hall",
    "sport": "multi",
    "id": "way/125553044"
   },
   "geometry": {
    "type": "Point",
    "coordinates": [
     1.242515225,
     52.623876125
    ]
   }
  },
  {
   "type": "Feature",
   "id": "way/125553046",
   "properties": {
    "building": "yes",
    "leisure": "sports_centre",
    "name": "Gymanstics Centre",
    "source": "Bing",
    "sport": "gymnastics",
    "id": "way/125553046"
   },
   "geometry": {
    "type": "Point",
    "coordinates": [
     1.2430402285714286,
     52.62395595714286
    ]
   }
  },
  {
   "type": "Feature",
   "id": "way/128808238",
   "properties": {
    "leisure": "pitch",
    "source": "Bing",
    "sport": "soccer",
    "id": "way/128808238"
   },
   "geometry": {
    "type": "Point",
    "coordinates": [
     1.2240712999999999,
     52.6454961
    ]
   }
  },
  {
   "type": "Feature",
   "id": "way/128808239",
   "properties": {
    "leisure": "pitch",
    "source": "Bing",
    "sport": "skateboard",
    "id": "way/128808239"
   },
   "geometry": {
    "type": "Point",
    "coordinates": [
     1.2247615,
     52.64575635
    ]
   }
  },
  {
   "type": "Feature",
   "id": "way/128808240",
   "properties": {
    "leisure": "pitch",
    "source": "Bing",
    "sport": "soccer",
    "id": "way/128808240"
   },
   "geometry": {
    "type": "Point",
    "coordinates": [
     1.2250933,
     52.6452001
    ]
   }
  },
  {
   "type": "Feature",
   "id": "way/128913418",
   "properties": {
    "email": "club@eatsc.org.uk",
    "fhrs:id": "40058",
    "leisure": "sports_centre",
    "name": "East Anglia Tennis & Squash Club",
    "sport": "tennis;squash",
    "website": "http://www.eatsc.org.uk/",
    "id": "way/128913418"
   },
   "geometry": {
    "type": "Point",
    "coordinates": [
     1.2786028666666667,
     52.61501796666667
    ]
   }
  },
  {
   "type": "Feature",
   "id": "way/129540203",
   "properties": {
    "leisure": "pitch",
    "source": "Bing",
    "sport": "basketball",
    "id": "way/129540203"
   },
   "geometry": {
    "type": "Point",
    "coordinates": [
     1.29213605,
     52.605749700000004
    ]
   }
  },
  {
   "type": "Feature",
   "id": "way/131325809",
   "properties": {
    "leisure": "pitch",
    "source": "Bing",
    "sport": "tennis",
    "id": "way/131325809"
   },
   "geometry": {
    "type": "Point",
    "coordinates": [
     1.2798158,
     52.606263375
    ]
   }
  },
  {
   "type": "Feature",
   "id": "way/131325812",
   "properties": {
    "leisure": "pitch",
    "source": "Bing",
    "sport": "tennis",
    "id": "way/131325812"
   },
   "geometry": {
    "type": "Point",
    "coordinates": [
     1.279603125,
     52.606280275
    ]
   }
  },
  {
   "type": "Feature",
   "id": "way/131325816",
   "properties": {
    "leisure": "playground",
    "id": "way/131325816"
   },
   "geometry": {
    "type": "Point",
    "coordinates": [
     1.2804106999999998,
     52.60701716666667
    ]
   }
  },
  {
   "type": "Feature",
   "id": "way/131491023",
   "properties": {
    "leaf_cycle": "semi_evergreen",
    "leaf_type": "broadleaved",
    "leisure": "park",
    "name": "Poringland Wood",
    "natural": "wood",
    "id": "way/131491023"
   },
   "geometry": {
    "type": "Point",
    "coordinates": [
     1.3414978347457631,
     52.585273971186446
    ]
   }
  },
  {
   "type": "Feature",
   "id": "way/132451877",
   "properties": {
    "addr:city": "Norwich",
    "addr:country": "GB",
    "addr:housename": "Norman Community Centre",
    "addr:postcode": "NR3 2QZ",
    "addr:street": "Bignold Road",
    "amenity": "community_centre",
    "building": "yes",
    "email": "normancentre@norwich.gov.uk",
    "leisure": "sports_centre",
    "name": "Norman Centre",
    "opening_hours": "Mo-Fr 09:00-22:00; Sa 10:00-14:00; Su off",
    "phone": "+44 1603 408140",
    "source": "Bing",
    "sport": "multi",
    "website": "https://www.norwich.gov.uk/sportandleisure/pages/normancentre.aspx",
    "id": "way/132451877"
   },
   "geometry": {
    "type": "Point",
    "coordinates": [
     1.2737020863636361,
     52.65080375
    ]
   }
  },
  {
   "type": "Feature",
   "id": "way/132696825",
   "properties": {
    "addr:city": "Norwich",
    "addr:country": "GB",
    "addr:housenumber": "91",
    "addr:postcode": "NR3 2AW",
    "addr:street": "Whiffler Road",
    "building": "yes",
    "description": "Trampoline Park",
    "email": "info@highaltitudepk.co.uk",
    "fhrs:id": "812529",
    "leisure": "sports_centre",
    "name": "High Altitude",
    "old_name": "CMC Carpets and Furniture Centre",
    "opening_hours": "Mo-Fr 10:00-22:00; SH Mo-Fr 09:00-22:00; Sa 09:00-22:00; Su 09:00-21:00",
    "phone": "+44 1603 402700",
    "source": "Bing",
    "sport": "trampoline",
    "start_date": "2015-07-25T12:00+01:00",
    "website": "https://highaltitudepk.co.uk/",
    "id": "way/132696825"
   },
   "geometry": {
    "type": "Point",
    "coordinates": [
     1.26491395,
     52.651903475
    ]
   }
  },
  {
   "type": "Feature",
   "id": "way/133189017",
   "properties": {
    "barrier": "fence",
    "leisure": "pitch",
    "source": "Bing",
    "id": "way/133189017"
   },